City,Airport,IATA Siglum,URL,Latitude,Longitude
Bahamas,Andros Town International Airport,ASD/MYAF,https://www.flightradar24.com/data/airports/asd,24.69828,-77.795601
Bahamas,Arthur's Town Airport,ATC/MYCA,https://www.flightradar24.com/data/airports/atc,24.628611,-75.671387
Bahamas,Cat Cays Airport,CXY/MYCC,https://www.flightradar24.com/data/airports/cxy,25.6,-79.266998
Bahamas,Chub Cay International Airport,CCZ/MYBC,https://www.flightradar24.com/data/airports/ccz,25.417101,-77.880798
Bahamas,Crooked Island Colonel Hill Airport,CRI/MYCI,https://www.flightradar24.com/data/airports/cri,22.75,-74.150002
Bahamas,Deadman's Cay Airport,LGI/MYLD,https://www.flightradar24.com/data/airports/lgi,23.17901,-75.093498
Bahamas,Freeport Grand Bahama International Airport,FPO/MYGF,https://www.flightradar24.com/data/airports/fpo,26.55868,-78.695503
Bahamas,George Town Exuma International Airport,GGT/MYEF,https://www.flightradar24.com/data/airports/ggt,23.56263,-75.877899
Bahamas,Governor's Harbour Airport,GHB/MYEM,https://www.flightradar24.com/data/airports/ghb,25.2847,-76.331001
Bahamas,Great Harbour Cay Airport,GHC/MYBG,https://www.flightradar24.com/data/airports/ghc,25.7383,-77.840103
Bahamas,Inagua Matthew Town Airport,IGA/MYIG,https://www.flightradar24.com/data/airports/iga,20.975,-73.666801
Bahamas,Marsh Harbour Airport,MHH/MYAM,https://www.flightradar24.com/data/airports/mhh,26.5114,-77.083397
Bahamas,Mayaguana Airport,MYG/MYMM,https://www.flightradar24.com/data/airports/myg,22.37952,-73.013496
Bahamas,Nassau Lynden Pindling International Airport,NAS/MYNN,https://www.flightradar24.com/data/airports/nas,25.03895,-77.466202
Bahamas,New Bight Airport,TBI/MYCB,https://www.flightradar24.com/data/airports/tbi,24.315001,-75.453613
Bahamas,Norman's Cay Airport,NMC/MYEN,https://www.flightradar24.com/data/airports/nmc,24.594299,-76.820198
Bahamas,North Eleuthera Airport,ELH/MYEH,https://www.flightradar24.com/data/airports/elh,25.474859,-76.683403
Bahamas,Rock Sound International Airport,RSD/MYER,https://www.flightradar24.com/data/airports/rsd,24.891701,-76.177696
Bahamas,San Andros Airport,SAQ/MYAN,https://www.flightradar24.com/data/airports/saq,25.05381,-78.048897
Bahamas,San Salvador Airport,ZSA/MYSM,https://www.flightradar24.com/data/airports/zsa,24.063271,-74.523903
Bahamas,South Bimini Airport,BIM/MYBS,https://www.flightradar24.com/data/airports/bim,25.699881,-79.264603
Bahamas,Spring Point Airport,AXP/MYAP,https://www.flightradar24.com/data/airports/axp,22.44182,-73.970802
Bahamas,Staniel Cay Airport,TYM/MYES,https://www.flightradar24.com/data/airports/tym,24.1691,-76.439102
Bahamas,Stella Maris Airport,SML/MYLS,https://www.flightradar24.com/data/airports/sml,23.58144,-75.270401
Bahamas,Treasure Cay Airport,TCB/MYAT,https://www.flightradar24.com/data/airports/tcb,26.745331,-77.391197
Bahamas,West End Airport,WTD/MYGW,https://www.flightradar24.com/data/airports/wtd,26.68527,-78.974998
Benin,Cotonou Cadjehoun Airport,COO/DBBB,https://www.flightradar24.com/data/airports/coo,6.357228,2.384353
Cayman Islands,Cayman Brac Charles Kirkconnell International Airport,CYB/MWCB,https://www.flightradar24.com/data/airports/cyb,19.686979,-79.882698
Cayman Islands,George Town Owen Roberts International Airport,GCM/MWCR,https://www.flightradar24.com/data/airports/gcm,19.29277,-81.357697
Cayman Islands,Little Cayman Airport,LYB/MWCL,https://www.flightradar24.com/data/airports/lyb,19.660271,-80.090202
Ethiopia,Addis Ababa Bole Airport,ADD/HAAB,https://www.flightradar24.com/data/airports/add,8.977889,38.799309
Ethiopia,Arba Minch Airport,AMH/HAAM,https://www.flightradar24.com/data/airports/amh,6.039389,37.59045
Ethiopia,Asosa Airport,ASO/HASO,https://www.flightradar24.com/data/airports/aso,10.01855,34.58625
Ethiopia,Awasa Airport,AWA/HALA,https://www.flightradar24.com/data/airports/awa,7.095,38.398335
Ethiopia,Axum Airport,AXU/HAAX,https://www.flightradar24.com/data/airports/axu,14.14675,38.772831
Ethiopia,Bahir Dar Airport,BJR/HABD,https://www.flightradar24.com/data/airports/bjr,11.60807,37.32164
Ethiopia,Dire Dawa International Airport,DIR/HADR,https://www.flightradar24.com/data/airports/dir,9.6247,41.854198
Ethiopia,Gambela Airport,GMB/HAGM,https://www.flightradar24.com/data/airports/gmb,8.128764,34.563129
Ethiopia,Gondar Airport,GDQ/HAGN,https://www.flightradar24.com/data/airports/gdq,12.5199,37.43404
Ethiopia,Jijiga Airport,JIJ/HAJJ,https://www.flightradar24.com/data/airports/jij,9.359722,42.787498
Ethiopia,Jimma Aba Segud Airport,JIM/HAJM,https://www.flightradar24.com/data/airports/jim,7.666094,36.816631
Ethiopia,Lalibela Airport,LLI/HALL,https://www.flightradar24.com/data/airports/lli,11.97501,38.979961
Ethiopia,Mekele Alula Aba Nega Airport,MQX/HAMK,https://www.flightradar24.com/data/airports/mqx,13.46736,39.533459
Afghanistan,Bost Airport,BST/OABT,https://www.flightradar24.com/data/airports/bst,31.55901,64.36409
Afghanistan,Chaghcharan Airport,CCN/OACC,https://www.flightradar24.com/data/airports/ccn,34.526661,65.27166
Afghanistan,Farah Airport,FAH/OAFR,https://www.flightradar24.com/data/airports/fah,32.365601,62.165138
Afghanistan,Herat International Airport,HEA/OAHR,https://www.flightradar24.com/data/airports/hea,34.209999,62.228329
Afghanistan,Kabul International Airport,KBL/OAKB,https://www.flightradar24.com/data/airports/kbl,34.565842,69.21241
Afghanistan,Kandahar Airport,KDH/OAKN,https://www.flightradar24.com/data/airports/kdh,31.51363,65.861053
Afghanistan,Mazar-I-Sharif International Airport,MZR/OAMS,https://www.flightradar24.com/data/airports/mzr,36.706909,67.209671
Afghanistan,Tarinkot Airport,TII/OATN,https://www.flightradar24.com/data/airports/tii,32.866669,65.633331
Afghanistan,Zaranj Airport,ZAJ/OAZJ,https://www.flightradar24.com/data/airports/zaj,30.96916,61.86702
Vietnam,Buon Ma Thuot Airport,BMV/VVBM,https://www.flightradar24.com/data/airports/bmv,12.66831,108.120201
Vietnam,Ca Mau Airport,CAH/VVCM,https://www.flightradar24.com/data/airports/cah,9.177667,105.17778
Vietnam,Can Tho International Airport,VCA/VVCT,https://www.flightradar24.com/data/airports/vca,10.08,105.709999
Vietnam,Chu Lai International Airport,VCL/VVCA,https://www.flightradar24.com/data/airports/vcl,15.4033,108.706001
Vietnam,Con Dao Airport,VCS/VVCS,https://www.flightradar24.com/data/airports/vcs,8.7325,106.628891
Vietnam,Da Lat Lien Khuong Airport,DLI/VVDL,https://www.flightradar24.com/data/airports/dli,11.75056,108.373611
Vietnam,Da Nang International Airport,DAD/VVDN,https://www.flightradar24.com/data/airports/dad,16.043909,108.199303
Mauritania,Nouadhibou International Airport,NDB/GQPP,https://www.flightradar24.com/data/airports/ndb,20.93306,-17.0299
Mauritania,Nouakchott Oumtounsy International Airport,NKC/GQNO,https://www.flightradar24.com/data/airports/nkc,18.306103,-15.964665
Mauritania,Zouerate Tazadit Airport,OUZ/GQPZ,https://www.flightradar24.com/data/airports/ouz,22.75638,-12.4836
Vietnam,Dien Bien Phu Airport,DIN/VVDB,https://www.flightradar24.com/data/airports/din,21.397499,103.008003
Vietnam,Dong Hoi Airport,VDH/VVDH,https://www.flightradar24.com/data/airports/vdh,17.514999,106.590553
Vietnam,Haiphong Cat Bi International Airport,HPH/VVCI,https://www.flightradar24.com/data/airports/hph,20.823315,106.727325
Vietnam,Hanoi Noi Bai International Airport,HAN/VVNB,https://www.flightradar24.com/data/airports/han,21.221189,105.807098
Vietnam,Ho Chi Minh City International Airport,SGN/VVTS,https://www.flightradar24.com/data/airports/sgn,10.81879,106.651802
Vietnam,Hue Phu Bai International Airport,HUI/VVPB,https://www.flightradar24.com/data/airports/hui,16.401489,107.702599
Vietnam,Nha Trang Cam Ranh International Airport,CXR/VVCR,https://www.flightradar24.com/data/airports/cxr,11.993611,109.224998
Vietnam,Phu Quoc International Airport,PQC/VVPQ,https://www.flightradar24.com/data/airports/pqc,10.171667,103.991112
Nigeria,Abuja Nnamdi Azikiwe International Airport,ABV/DNAA,https://www.flightradar24.com/data/airports/abv,9.006792,7.263172
Nigeria,Asaba International Airport,ABB/DNAS,https://www.flightradar24.com/data/airports/abb,6.203055,6.667222
Nigeria,Benin Airport,BNI/DNBE,https://www.flightradar24.com/data/airports/bni,6.316981,5.599503
Gibraltar,Gibraltar Airport,GIB/LXGB,https://www.flightradar24.com/data/airports/gib,36.151211,-5.34966
Nigeria,Calabar Margaret Ekpo International Airport,CBQ/DNCA,https://www.flightradar24.com/data/airports/cbq,4.976019,8.347196
Nigeria,Enugu Akanu Ibiam International Airport,ENU/DNEN,https://www.flightradar24.com/data/airports/enu,6.474272,7.561961
Nigeria,Ibadan Airport,IBA/DNIB,https://www.flightradar24.com/data/airports/iba,7.362458,3.978333
Nigeria,Jos Yakubu Gowon Airport,JOS/DNJO,https://www.flightradar24.com/data/airports/jos,9.639828,8.86905
Nigeria,Kaduna Airport,KAD/DNKA,https://www.flightradar24.com/data/airports/kad,10.69602,7.320114
Nigeria,Kano Mallam Aminu International Airport,KAN/DNKN,https://www.flightradar24.com/data/airports/kan,12.04758,8.524622
Nigeria,Lagos Murtala Mohammed Airport,LOS/DNMM,https://www.flightradar24.com/data/airports/los,6.577369,3.321156
Nigeria,Owerri Sam Mbakwe Airport,QOW/DNIM,https://www.flightradar24.com/data/airports/qow,5.427056,7.206031
Nigeria,Port Harcourt International Airport,PHC/DNPO,https://www.flightradar24.com/data/airports/phc,5.015494,6.949594
Nigeria,Uyo Akwa Ibom Airport,QUO/DNAI,https://www.flightradar24.com/data/airports/quo,4.876463,8.085693
Nigeria,Yola Airport,YOL/DNYO,https://www.flightradar24.com/data/airports/yol,9.257553,12.43042
Saudi Arabia,Abha Regional Airport,AHB/OEAB,https://www.flightradar24.com/data/airports/ahb,18.24036,42.65662
Saudi Arabia,Al Ula Domestic Airport,ULH/OEAO,https://www.flightradar24.com/data/airports/ulh,26.480862,38.116653
Saudi Arabia,Al-Baha Domestic Airport,ABT/OEBA,https://www.flightradar24.com/data/airports/abt,20.296129,41.63427
Saudi Arabia,Al-Qassim Regional Airport,ELQ/OEGS,https://www.flightradar24.com/data/airports/elq,26.30282,43.773911
Saudi Arabia,Arar Domestic Airport,RAE/OERR,https://www.flightradar24.com/data/airports/rae,30.90658,41.13821
Saudi Arabia,Bisha Domestic Airport,BHH/OEBH,https://www.flightradar24.com/data/airports/bhh,19.98435,42.62088
Vietnam,Pleiku Airport,PXU/VVPK,https://www.flightradar24.com/data/airports/pxu,14.006346,108.008957
Vietnam,Quang Ninh Van Don International Airport,VDO/VVVD,https://www.flightradar24.com/data/airports/vdo,21.117779,107.414169
Vietnam,Qui Nhon Phu Cat Airport,UIH/VVPC,https://www.flightradar24.com/data/airports/uih,13.955,109.042221
Vietnam,Rach Gia Airport,VKG/VVRG,https://www.flightradar24.com/data/airports/vkg,9.958056,105.1325
Vietnam,Sao Vang Tho Xuan Airport,THD/VVTX,https://www.flightradar24.com/data/airports/thd,19.901667,105.467781
Vietnam,Tuy Hoa Dong Tac Airport,TBB/VVTH,https://www.flightradar24.com/data/airports/tbb,13.04955,109.333702
Saudi Arabia,Dammam King Fahd International Airport,DMM/OEDF,https://www.flightradar24.com/data/airports/dmm,26.471161,49.79789
Saudi Arabia,Dawadmi Domestic Airport,DWD/OEDW,https://www.flightradar24.com/data/airports/dwd,24.445545,44.1287
Saudi Arabia,Gurayat Domestic Airport,URY/OEGT,https://www.flightradar24.com/data/airports/ury,31.41194,37.279461
Vietnam,Vinh Airport,VII/VVVH,https://www.flightradar24.com/data/airports/vii,18.73,105.669998
Saudi Arabia,Ha'il Regional Airport,HAS/OEHL,https://www.flightradar24.com/data/airports/has,27.43791,41.686291
Saudi Arabia,Hofuf Al-Ahsa International Airport,HOF/OEAH,https://www.flightradar24.com/data/airports/hof,25.294783,49.487461
Saudi Arabia,Jeddah King Abdulaziz International Airport,JED/OEJN,https://www.flightradar24.com/data/airports/jed,21.67956,39.156528
Saudi Arabia,Jizan Regional Airport,GIZ/OEGN,https://www.flightradar24.com/data/airports/giz,16.90111,42.585831
Saudi Arabia,Medina Prince Mohammad bin Abdulaziz Airport,MED/OEMA,https://www.flightradar24.com/data/airports/med,24.553419,39.705059
Saudi Arabia,Najran Domestic Airport,EAM/OENG,https://www.flightradar24.com/data/airports/eam,17.611429,44.419159
Saudi Arabia,Qaisumah Hafar Al Batin Airport,AQI/OEPA,https://www.flightradar24.com/data/airports/aqi,28.33519,46.125061
Saudi Arabia,Rafha Domestic Airport,RAH/OERF,https://www.flightradar24.com/data/airports/rah,29.62641,43.490608
Saudi Arabia,Riyadh King Khalid International Airport,RUH/OERK,https://www.flightradar24.com/data/airports/ruh,24.95764,46.698769
Saudi Arabia,Sakaka Al-Jawf Domestic Airport,AJF/OESK,https://www.flightradar24.com/data/airports/ajf,29.788668,40.101486
Saudi Arabia,Sharurah Domestic Airport,SHW/OESH,https://www.flightradar24.com/data/airports/shw,17.466869,47.121429
Liberia,Monrovia Roberts International Airport,ROB/GLRB,https://www.flightradar24.com/data/airports/rob,6.233789,-10.3623
Saudi Arabia,Tabuk Regional Airport,TUU/OETB,https://www.flightradar24.com/data/airports/tuu,28.36541,36.618881
Saudi Arabia,Taif Airport,TIF/OETF,https://www.flightradar24.com/data/airports/tif,21.48341,40.544331
Saudi Arabia,Turaif Domestic Airport,TUI/OETR,https://www.flightradar24.com/data/airports/tui,31.69268,38.731201
Saudi Arabia,Wadi Ad Dawasir Domestic Airport,WAE/OEWD,https://www.flightradar24.com/data/airports/wae,20.5,45.189999
Saudi Arabia,Wajh Domestic Airport,EJH/OEWJ,https://www.flightradar24.com/data/airports/ejh,26.198549,36.476379
Saudi Arabia,Yanbu Airport,YNB/OEYN,https://www.flightradar24.com/data/airports/ynb,24.144239,38.063351
Kosovo,Pristina Adem Jashari International Airport,PRN/BKPR,https://www.flightradar24.com/data/airports/prn,42.572769,21.03583
Sudan,El Fasher Airport,ELF/HSFS,https://www.flightradar24.com/data/airports/elf,13.61489,25.32465
Sudan,El Obeid Airport,EBD/HSOB,https://www.flightradar24.com/data/airports/ebd,13.15321,30.23267
Sudan,Geneina Airport,EGN/HSCN,https://www.flightradar24.com/data/airports/egn,13.48166,22.46722
Sudan,Juba Airport,JUB/HSSJ,https://www.flightradar24.com/data/airports/jub,4.872006,31.60111
Sudan,Kassala Airport,KSL/HSKA,https://www.flightradar24.com/data/airports/ksl,15.38749,36.328838
Sudan,Khartoum International Airport,KRT/HSSS,https://www.flightradar24.com/data/airports/krt,15.58949,32.553162
Sudan,Nyala Airport,UYL/HSNL,https://www.flightradar24.com/data/airports/uyl,12.05347,24.956169
Sudan,Port Sudan New International Airport,PZU/HSPN,https://www.flightradar24.com/data/airports/pzu,19.43363,37.23407
Dominican Republic,Barahona Maria Montez International Airport,BRX/MDBH,https://www.flightradar24.com/data/airports/brx,18.251459,-71.120399
Dominican Republic,La Romana International Airport,LRM/MDLR,https://www.flightradar24.com/data/airports/lrm,18.45071,-68.911797
Dominican Republic,Puerto Plata Gregorio Luperon International Airport,POP/MDPP,https://www.flightradar24.com/data/airports/pop,19.7579,-70.57
Dominican Republic,Punta Cana International Airport,PUJ/MDPC,https://www.flightradar24.com/data/airports/puj,18.56736,-68.363403
Dominican Republic,Samana El Catey International Airport,AZS/MDCY,https://www.flightradar24.com/data/airports/azs,19.267,-69.741997
Dominican Republic,Santiago de los Caballeros Cibao International Airport,STI/MDST,https://www.flightradar24.com/data/airports/sti,19.40609,-70.604599
Dominican Republic,Santo Domingo Las Americas International Airport,SDQ/MDSD,https://www.flightradar24.com/data/airports/sdq,18.429661,-69.6689
Guinea-bissau,Bissau Osvaldo Vieira International Airport,OXB/GGOV,https://www.flightradar24.com/data/airports/oxb,11.8947,-15.6536
Comoros,Anjouan Ouani Airport,AJN/FMCV,https://www.flightradar24.com/data/airports/ajn,-12.1316,44.430271
Saint Helena,Ascension Island Airport,ASI/FHAW,https://www.flightradar24.com/data/airports/asi,-7.9696,-14.3937
Bulgaria,Burgas Airport,BOJ/LBBG,https://www.flightradar24.com/data/airports/boj,42.56958,27.51523
Bulgaria,Plovdiv Airport,PDV/LBPD,https://www.flightradar24.com/data/airports/pdv,42.067799,24.85083
Dominican Republic,Santo Domingo La Isabela International Airport,JBQ/MDJB,https://www.flightradar24.com/data/airports/jbq,18.575556,-69.981392
Comoros,Moroni Prince Said Ibrahim International Airport,HAH/FMCH,https://www.flightradar24.com/data/airports/hah,-11.5336,43.271851
Saint Helena,Saint Helena Airport,HLE/FHSH,https://www.flightradar24.com/data/airports/hle,-15.959167,-5.645833
Bulgaria,Sofia Airport,SOF/LBSF,https://www.flightradar24.com/data/airports/sof,42.69519,23.40616
Bulgaria,Varna Airport,VAR/LBWN,https://www.flightradar24.com/data/airports/var,43.232071,27.8251
Antigua And Barbuda,Antigua V. C. Bird International Airport,ANU/TAPA,https://www.flightradar24.com/data/airports/anu,17.13674,-61.792599
Nauru,Nauru International Airport,INU/ANYN,https://www.flightradar24.com/data/airports/inu,-0.54745,166.919098
French Polynesia,Ahe Airport,AHE/NTHE,https://www.flightradar24.com/data/airports/ahe,-14.42759,-146.255981
Curacao,Willemstad Curacao Hato International Airport,CUR/TNCC,https://www.flightradar24.com/data/airports/cur,12.18885,-68.959801
Slovenia,Ljubljana Joze Pucnik Airport,LJU/LJLJ,https://www.flightradar24.com/data/airports/lju,46.223679,14.45761
Slovenia,Maribor Airport,MBX/LJMB,https://www.flightradar24.com/data/airports/mbx,46.479858,15.68613
French Polynesia,Arutua Airport,AXR/NTGU,https://www.flightradar24.com/data/airports/axr,-15.2463,-146.619995
French Polynesia,Atuona Airport,AUQ/NTMN,https://www.flightradar24.com/data/airports/auq,-9.76879,-139.011002
French Polynesia,Bora Bora Airport,BOB/NTTB,https://www.flightradar24.com/data/airports/bob,-16.4443,-151.751007
French Polynesia,Fakarava Airport,FAV/NTGF,https://www.flightradar24.com/data/airports/fav,-16.0541,-145.656006
Madagascar,Antananarivo Ivato International Airport,TNR/FMMI,https://www.flightradar24.com/data/airports/tnr,-18.7969,47.478802
United Arab Emirates,Abu Dhabi International Airport,AUH/OMAA,https://www.flightradar24.com/data/airports/auh,24.43297,54.651131
United Arab Emirates,Abu Dhabi Al Bateen Executive Airport,AZI/OMAD,https://www.flightradar24.com/data/airports/azi,24.428329,54.45808
United Arab Emirates,Al Ain International Airport,AAN/OMAL,https://www.flightradar24.com/data/airports/aan,24.26166,55.609161
Madagascar,Antsiranana Arrachart Airport,DIE/FMNA,https://www.flightradar24.com/data/airports/die,-12.3494,49.29174
Madagascar,Mahajanga Amborovy Airport,MJN/FMNM,https://www.flightradar24.com/data/airports/mjn,-15.6671,46.351822
Madagascar,Maroantsetra Airport,WMN/FMNR,https://www.flightradar24.com/data/airports/wmn,-15.4366,49.688332
Madagascar,Morondava Airport,MOQ/FMMV,https://www.flightradar24.com/data/airports/moq,-20.2847,44.317612
Madagascar,Nosy Be Fascene Airport,NOS/FMNN,https://www.flightradar24.com/data/airports/nos,-13.312,48.314819
French Polynesia,Hao Airport,HOI/NTTO,https://www.flightradar24.com/data/airports/hoi,-18.0748,-140.945007
French Polynesia,Huahine Fare Airport,HUH/NTTH,https://www.flightradar24.com/data/airports/huh,-16.688,-151.026001
French Polynesia,Kauehi Airport,KHZ/NTKA,https://www.flightradar24.com/data/airports/khz,-15.7808,-145.123993
French Polynesia,Kaukura Airport,KKR/NTGK,https://www.flightradar24.com/data/airports/kkr,-15.6674,-146.886002
United Arab Emirates,Dubai World Central International Airport,DWC/OMDW,https://www.flightradar24.com/data/airports/dwc,24.88611,55.172222
United Arab Emirates,Dubai International Airport,DXB/OMDB,https://www.flightradar24.com/data/airports/dxb,25.252769,55.364441
United Arab Emirates,Fujairah International Airport,FJR/OMFJ,https://www.flightradar24.com/data/airports/fjr,25.112221,56.323959
United Arab Emirates,Ras Al Khaimah International Airport,RKT/OMRK,https://www.flightradar24.com/data/airports/rkt,25.61348,55.938808
United Arab Emirates,Sharjah International Airport,SHJ/OMSJ,https://www.flightradar24.com/data/airports/shj,25.328569,55.517151
United Arab Emirates,Sir Bani Yas Airport,XSB/OMBY,https://www.flightradar24.com/data/airports/xsb,24.283974,52.583874
Madagascar,Sainte Marie Airport,SMS/FMMS,https://www.flightradar24.com/data/airports/sms,-17.0938,49.81583
French Polynesia,Makemo Airport,NAU/NTGN,https://www.flightradar24.com/data/airports/nau,-14.1767,-141.266998
French Polynesia,Makemo Airport,MKP/NTGM,https://www.flightradar24.com/data/airports/mkp,-16.5839,-143.658005
French Polynesia,Manihi Airport,XMH/NTGI,https://www.flightradar24.com/data/airports/xmh,-14.4375,-146.070007
French Polynesia,Mataiva Airport,MVT/NTGV,https://www.flightradar24.com/data/airports/mvt,-14.8694,-148.712997
French Polynesia,Maupiti Airport,MAU/NTTP,https://www.flightradar24.com/data/airports/mau,-16.4263,-152.242996
French Polynesia,Moorea Airport,MOZ/NTTM,https://www.flightradar24.com/data/airports/moz,-17.489901,-149.761002
French Polynesia,Niau Airport,NIU/NTKN,https://www.flightradar24.com/data/airports/niu,-16.121988,-146.373245
French Polynesia,Nuku Hiva Airport,NHV/NTMD,https://www.flightradar24.com/data/airports/nhv,-8.79472,-140.223007
French Polynesia,Papeete Tahiti Faa'a International Airport,PPT/NTAA,https://www.flightradar24.com/data/airports/ppt,-17.556601,-149.610992
Tajikistan,Dushanbe International Airport,DYU/UTDD,https://www.flightradar24.com/data/airports/dyu,38.543331,68.824997
Tajikistan,Khudzhand Khujand Airport,LBD/UTDL,https://www.flightradar24.com/data/airports/lbd,40.215279,69.694725
Tajikistan,Kulob Airport,TJU/UTDK,https://www.flightradar24.com/data/airports/tju,37.988335,69.805
French Polynesia,Raiatea Airport,RFP/NTTR,https://www.flightradar24.com/data/airports/rfp,-16.722799,-151.464996
French Polynesia,Rangiroa Airport,RGI/NTTG,https://www.flightradar24.com/data/airports/rgi,-14.9552,-147.656998
Tajikistan,Kurgan Tyube Qurghonteppa International Airport,KQT/UTDT,https://www.flightradar24.com/data/airports/kqt,37.859612,68.861168
French Polynesia,Rimatara Airport,RMT/NTAM,https://www.flightradar24.com/data/airports/rmt,-22.629999,-152.800003
French Polynesia,Rurutu Airport,RUR/NTAR,https://www.flightradar24.com/data/airports/rur,-22.434,-151.360001
French Polynesia,Takaroa Airport,TKX/NTKR,https://www.flightradar24.com/data/airports/tkx,-14.4558,-145.026001
French Polynesia,Tatakoto Airport,TKV/NTGO,https://www.flightradar24.com/data/airports/tkv,-17.3552,-138.445007
French Polynesia,Tikehau Airport,TIH/NTGC,https://www.flightradar24.com/data/airports/tih,-15.1196,-148.229996
French Polynesia,Totegegie Airport,GMR/NTGJ,https://www.flightradar24.com/data/airports/gmr,-23.0833,-134.882996
Madagascar,Sambava Airport,SVB/FMNS,https://www.flightradar24.com/data/airports/svb,-14.2786,50.174721
Madagascar,Toamasina Airport,TMM/FMMT,https://www.flightradar24.com/data/airports/tmm,-18.109501,49.392529
Madagascar,Tolanaro Airport,FTU/FMSD,https://www.flightradar24.com/data/airports/ftu,-25.038,46.956108
Madagascar,Toliara Airport,TLE/FMST,https://www.flightradar24.com/data/airports/tle,-23.383301,43.728451
Madagascar,Tsaratanana Airport,TTS/FMNT,https://www.flightradar24.com/data/airports/tts,-16.75,47.617001
French Polynesia,Tubuai Mataura Airport,TUB/NTAT,https://www.flightradar24.com/data/airports/tub,-23.365299,-149.524002
French Polynesia,Ua Huka Airport,UAH/NTMU,https://www.flightradar24.com/data/airports/uah,-8.93611,-139.552002
French Polynesia,Ua Pou Airport,UAP/NTMP,https://www.flightradar24.com/data/airports/uap,-9.35166,-140.076996
Puerto Rico,Aguadilla Rafael Hernandez Airport,BQN/TJBQ,https://www.flightradar24.com/data/airports/bqn,18.49486,-67.129402
Puerto Rico,Isla De Culebra Benjamin Rivera Noriega Airport,CPX/TJCP,https://www.flightradar24.com/data/airports/cpx,18.31328,-65.304298
Puerto Rico,Mayaguez Eugenio María de Hostos,MAZ/TJMZ,https://www.flightradar24.com/data/airports/maz,18.25569,-67.148399
Puerto Rico,Ponce Mercedita Airport,PSE/TJPS,https://www.flightradar24.com/data/airports/pse,18.008301,-66.563004
Puerto Rico,San Juan Fernando Luis Ribas Dominicci Airport,SIG/TJIG,https://www.flightradar24.com/data/airports/sig,18.45682,-66.098099
Puerto Rico,San Juan Luis Munoz Marin International Airport,SJU/TJSJ,https://www.flightradar24.com/data/airports/sju,18.439409,-66.001801
Puerto Rico,Vieques Antonio Rivera Rodriguez Airport,VQS/TJCG,https://www.flightradar24.com/data/airports/vqs,18.134809,-65.493599
Mongolia,Ulan Bator Chinggis Khaan International Airport,ULN/ZMUB,https://www.flightradar24.com/data/airports/uln,47.843048,106.766602
Palau,Airai Roman Tmetuchl International Airport,ROR/PTRO,https://www.flightradar24.com/data/airports/ror,7.367303,134.544205
Turkey,Adana Sakirpasa Airport,ADA/LTAF,https://www.flightradar24.com/data/airports/ada,36.982159,35.28038
Turkey,Adiyaman Airport,ADF/LTCP,https://www.flightradar24.com/data/airports/adf,37.731361,38.468929
Turkey,Agri Airport,AJI/LTCO,https://www.flightradar24.com/data/airports/aji,39.65456,43.027149
Turkey,Ankara Esenboga International Airport,ESB/LTAC,https://www.flightradar24.com/data/airports/esb,40.128078,32.995079
Turkey,Antakya Hatay Airport,HTY/LTDA,https://www.flightradar24.com/data/airports/hty,36.362778,36.282223
Turkey,Antalya Airport,AYT/LTAI,https://www.flightradar24.com/data/airports/ayt,36.898731,30.800461
Turkey,Batman Airport,BAL/LTCJ,https://www.flightradar24.com/data/airports/bal,37.928959,41.116581
Turkey,Bingol Airport,BGG/LTCU,https://www.flightradar24.com/data/airports/bgg,38.861111,40.592499
Turkey,Bodrum Milas Airport,BJV/LTFE,https://www.flightradar24.com/data/airports/bjv,37.25061,27.66431
Turkey,Bursa Yenisehir Airport,YEI/LTBR,https://www.flightradar24.com/data/airports/yei,40.255001,29.5625
Turkey,Canakkale Airport,CKZ/LTBH,https://www.flightradar24.com/data/airports/ckz,40.137718,26.426769
Turkey,Denizli Cardak Airport,DNZ/LTAY,https://www.flightradar24.com/data/airports/dnz,37.785561,29.70129
Turkey,Dalaman Airport,DLM/LTBS,https://www.flightradar24.com/data/airports/dlm,36.713051,28.7925
Turkey,Diyarbakır Airport,DIY/LTCC,https://www.flightradar24.com/data/airports/diy,37.89389,40.201012
Turkey,Edremit Balikesir Koca Seyit Airport,EDO/LTFD,https://www.flightradar24.com/data/airports/edo,39.549999,27.01
Turkey,Elazig Airport,EZS/LTCA,https://www.flightradar24.com/data/airports/ezs,38.606918,39.291409
Turkey,Erzincan Airport,ERC/LTCD,https://www.flightradar24.com/data/airports/erc,39.710201,39.527
Turkey,Erzurum Airport,ERZ/LTCE,https://www.flightradar24.com/data/airports/erz,39.956501,41.170158
Turkey,Eskisehir Airport,AOE/LTBY,https://www.flightradar24.com/data/airports/aoe,39.811401,30.527
Turkey,Oguzeli Airport,GZT/LTAJ,https://www.flightradar24.com/data/airports/gzt,36.947182,37.47868
Turkey,Gazipasa Airport,GZP/LTFG,https://www.flightradar24.com/data/airports/gzp,36.299,32.299999
Turkey,Igdir Airport,IGD/LTCT,https://www.flightradar24.com/data/airports/igd,39.983055,43.86639
Turkey,Isparta Suleyman Demirel Airport,ISE/LTFC,https://www.flightradar24.com/data/airports/ise,37.866112,30.382221
Turkey,Istanbul Ataturk International Airport,IST/LTBA,https://www.flightradar24.com/data/airports/ist,40.976921,28.8146
Turkey,Istanbul Sabiha Gokcen International Airport,SAW/LTFJ,https://www.flightradar24.com/data/airports/saw,40.898548,29.30921
Turkey,Istanbul New Airport,ISL/LTFM,https://www.flightradar24.com/data/airports/isl,41.267052,28.729757
Turkey,Izmir Adnan Menderes International Airport,ADB/LTBJ,https://www.flightradar24.com/data/airports/adb,38.292389,27.15695
Turkey,Izmit Topel Airport,KCO/LTBQ,https://www.flightradar24.com/data/airports/kco,40.735027,30.083336
Turkey,Kahramanmaras Airport,KCM/LTCN,https://www.flightradar24.com/data/airports/kcm,37.534401,36.9505
Turkey,Kars Harakani Airport,KSY/LTCF,https://www.flightradar24.com/data/airports/ksy,40.562222,43.115002
Turkey,Kastamonu Airport,KFS/LTAL,https://www.flightradar24.com/data/airports/kfs,41.314167,33.795555
Turkey,Kayseri Erkilet International Airport,ASR/LTAU,https://www.flightradar24.com/data/airports/asr,38.770378,35.495419
Turkey,Konya Airport,KYA/LTAN,https://www.flightradar24.com/data/airports/kya,37.979,32.561859
Turkey,Kutahya Zafer Airport,KZR/LTBZ,https://www.flightradar24.com/data/airports/kzr,39.111389,30.129999
Turkey,Malatya Erhac Airport,MLX/LTAT,https://www.flightradar24.com/data/airports/mlx,38.435341,38.091
Turkey,Mardin Airport,MQM/LTCR,https://www.flightradar24.com/data/airports/mqm,37.223331,40.63166
Turkey,Merzifon Airport,MZH/LTAP,https://www.flightradar24.com/data/airports/mzh,40.829369,35.521992
Turkey,Mus Airport,MSR/LTCK,https://www.flightradar24.com/data/airports/msr,38.747761,41.661228
Turkey,Nevsehir Kapadokya Airport,NAV/LTAZ,https://www.flightradar24.com/data/airports/nav,38.76889,34.52639
Turkey,Ordu Giresun Airport,OGU/LTCB,https://www.flightradar24.com/data/airports/ogu,40.966667,38.066666
Turkey,Samsun Carsamba Airport,SZF/LTFH,https://www.flightradar24.com/data/airports/szf,41.254478,36.567101
Turkey,Sanliurfa GAP Airport,GNY/LTCS,https://www.flightradar24.com/data/airports/gny,37.450001,38.900002
Turkey,Siirt Airport,SXZ/LTCL,https://www.flightradar24.com/data/airports/sxz,37.978901,41.840401
Turkey,Sinop Airport,NOP/LTCM,https://www.flightradar24.com/data/airports/nop,42.019001,35.079189
Turkey,Sirnak Airport,NKT/LTCV,https://www.flightradar24.com/data/airports/nkt,37.363888,42.060001
Turkey,Sivas Nuri Demirag Airport,VAS/LTAR,https://www.flightradar24.com/data/airports/vas,39.81382,36.903488
Turkey,Tekirdag Corlu Airport,TEQ/LTBU,https://www.flightradar24.com/data/airports/teq,41.138332,27.919167
Turkey,Tokat Airport,TJK/LTAW,https://www.flightradar24.com/data/airports/tjk,40.30743,36.367409
Turkey,Trabzon Airport,TZX/LTCG,https://www.flightradar24.com/data/airports/tzx,40.995098,39.789719
Turkey,Tymvou Ercan International Airport,ECN/LCEN,https://www.flightradar24.com/data/airports/ecn,35.15472,33.496109
Turkey,Van Airport,VAN/LTCI,https://www.flightradar24.com/data/airports/van,38.468208,43.332298
Turkey,Yuksekova Hakkari Airport,YKO/LTCW,https://www.flightradar24.com/data/airports/yko,37.545242,44.255165
Turkey,Zonguldak Airport,ONQ/LTAS,https://www.flightradar24.com/data/airports/onq,41.516666,32.099998
Bahrain,Awali Sakhir Air Base,KHB/OBKH,https://www.flightradar24.com/data/airports/khb,26.034721,50.524445
Bahrain,Bahrain International Airport,BAH/OBBI,https://www.flightradar24.com/data/airports/bah,26.27083,50.63361
Italy,Albenga Clemente Panero International Airport,ALL/LIMG,https://www.flightradar24.com/data/airports/all,44.050598,8.127428
Italy,Alghero Fertilia Airport,AHO/LIEA,https://www.flightradar24.com/data/airports/aho,40.63213,8.290772
Italy,Ancona Airport,AOI/LIPY,https://www.flightradar24.com/data/airports/aoi,43.616341,13.36231
Italy,Aosta Airport,AOT/LIMW,https://www.flightradar24.com/data/airports/aot,45.738499,7.36872
Italy,Bari Karol Wojtyla Airport,BRI/LIBD,https://www.flightradar24.com/data/airports/bri,41.138851,16.76059
Italy,Bologna Guglielmo Marconi Airport,BLQ/LIPE,https://www.flightradar24.com/data/airports/blq,44.535439,11.28866
Italy,Bolzano Airport,BZO/LIPB,https://www.flightradar24.com/data/airports/bzo,46.46019,11.32638
Italy,Brescia Airport,VBS/LIPO,https://www.flightradar24.com/data/airports/vbs,45.428879,10.33055
Italy,Brindisi Airport,BDS/LIBR,https://www.flightradar24.com/data/airports/bds,40.657631,17.947029
Italy,Cagliari Elmas Airport,CAG/LIEE,https://www.flightradar24.com/data/airports/cag,39.251461,9.054283
Italy,Catania Fontanarossa Airport,CTA/LICC,https://www.flightradar24.com/data/airports/cta,37.466782,15.0664
Italy,Comiso Airport,CIY/LICB,https://www.flightradar24.com/data/airports/ciy,36.990002,14.6
Italy,Crotone Airport,CRV/LIBC,https://www.flightradar24.com/data/airports/crv,38.997219,17.08016
Italy,Turin Cuneo Levaldigi Airport,CUF/LIMZ,https://www.flightradar24.com/data/airports/cuf,44.547009,7.623217
Italy,Elba Marina di Campo Airport,EBA/LIRJ,https://www.flightradar24.com/data/airports/eba,42.760269,10.23944
Italy,Florence Peretola Airport,FLR/LIRQ,https://www.flightradar24.com/data/airports/flr,43.809952,11.2051
Italy,Foggia Gino Lisa Airport,FOG/LIBF,https://www.flightradar24.com/data/airports/fog,41.432911,15.53502
Bermuda,Bermuda L.F. Wade International Airport,BDA/TXKF,https://www.flightradar24.com/data/airports/bda,32.36404,-64.678703
Iceland,Akureyri Airport,AEY/BIAR,https://www.flightradar24.com/data/airports/aey,65.658607,-18.072201
Italy,Forli Airport,FRL/LIPK,https://www.flightradar24.com/data/airports/frl,44.194752,12.07009
Italy,Genoa Cristoforo Colombo Airport,GOA/LIMJ,https://www.flightradar24.com/data/airports/goa,44.41333,8.8375
Italy,Grosseto Airport,GRS/LIRS,https://www.flightradar24.com/data/airports/grs,42.759739,11.07189
Italy,Lamezia Terme Airport,SUF/LICA,https://www.flightradar24.com/data/airports/suf,38.905392,16.24226
Italy,Lampedusa Airport,LMP/LICD,https://www.flightradar24.com/data/airports/lmp,35.49791,12.61808
Iceland,Bildudalur Airport,BIU/BIBD,https://www.flightradar24.com/data/airports/biu,65.641388,-23.54611
Iceland,Egilsstadir Airport,EGS/BIEG,https://www.flightradar24.com/data/airports/egs,65.283333,-14.4013
Iceland,Grimsey Airport,GRY/BIGR,https://www.flightradar24.com/data/airports/gry,66.554718,-18.0175
Iceland,Hofn Hornafjordur Airport,HFN/BIHN,https://www.flightradar24.com/data/airports/hfn,64.295547,-15.2272
Iceland,Husavik Airport,HZK/BIHU,https://www.flightradar24.com/data/airports/hzk,65.952499,-17.4258
Iceland,Isafjordur Airport,IFJ/BIIS,https://www.flightradar24.com/data/airports/ifj,66.058052,-23.135201
Iceland,Nordfjordur Airport,NOR/BINF,https://www.flightradar24.com/data/airports/nor,65.131943,-13.7463
Iceland,Keflavik International Airport,KEF/BIKF,https://www.flightradar24.com/data/airports/kef,63.985001,-22.605499
Iceland,Reykjavik Airport,RKV/BIRK,https://www.flightradar24.com/data/airports/rkv,64.12999,-21.9405
Italy,Lucca Tassignano Airport,LCV/LIQL,https://www.flightradar24.com/data/airports/lcv,43.828201,10.5781
Italy,Milan Malpensa Airport,MXP/LIMC,https://www.flightradar24.com/data/airports/mxp,45.6306,8.728111
Italy,Milan Bergamo Il Caravaggio International Airport,BGY/LIME,https://www.flightradar24.com/data/airports/bgy,45.673882,9.704166
Italy,Milan Linate Airport,LIN/LIML,https://www.flightradar24.com/data/airports/lin,45.445099,9.276739
Italy,Naples Airport,NAP/LIRN,https://www.flightradar24.com/data/airports/nap,40.886028,14.29078
Italy,Olbia Costa Smeralda Airport,OLB/LIEO,https://www.flightradar24.com/data/airports/olb,40.898659,9.517628
Italy,Oristano Fenosu Airport,FNU/LIER,https://www.flightradar24.com/data/airports/fnu,39.895416,8.642592
Italy,Palermo Falcone-Borsellino Airport,PMO/LICJ,https://www.flightradar24.com/data/airports/pmo,38.175949,13.09101
Italy,Pantelleria Airport,PNL/LICG,https://www.flightradar24.com/data/airports/pnl,36.816509,11.96886
Italy,Parma Airport,PMF/LIMP,https://www.flightradar24.com/data/airports/pmf,44.824478,10.29636
Italy,Perugia Umbria International Airport,PEG/LIRZ,https://www.flightradar24.com/data/airports/peg,43.095901,12.51322
Italy,Pescara Abruzzo International Airport,PSR/LIBP,https://www.flightradar24.com/data/airports/psr,42.431648,14.18106
Italy,Pisa Galileo Galilei Airport,PSA/LIRP,https://www.flightradar24.com/data/airports/psa,43.68391,10.39275
Italy,Ravenna Airport,RAN/LIDR,https://www.flightradar24.com/data/airports/ran,44.3643,12.2249
Italy,Reggio Calabria Airport,REG/LICR,https://www.flightradar24.com/data/airports/reg,38.071201,15.65155
Italy,Rimini Federico Fellini Airport,RMI/LIPR,https://www.flightradar24.com/data/airports/rmi,44.02029,12.61174
Italy,Rome Leonardo da Vinci Fiumicino Airport,FCO/LIRF,https://www.flightradar24.com/data/airports/fco,41.80447,12.25079
Italy,Rome Ciampino Airport,CIA/LIRA,https://www.flightradar24.com/data/airports/cia,41.799358,12.59493
Italy,Salerno Costa d'Amalfi Airport,QSR/LIRI,https://www.flightradar24.com/data/airports/qsr,40.620148,14.92084
Italy,Taranto Grottaglie Airport,TAR/LIBG,https://www.flightradar24.com/data/airports/tar,40.517509,17.40321
Italy,Trapani Birgi Airport,TPS/LICT,https://www.flightradar24.com/data/airports/tps,37.9114,12.48796
Italy,Treviso Airport,TSF/LIPH,https://www.flightradar24.com/data/airports/tsf,45.648399,12.19442
Italy,Trieste Friuli Venezia Giulia Airport,TRS/LIPQ,https://www.flightradar24.com/data/airports/trs,45.827499,13.47222
Italy,Turin Caselle Airport,TRN/LIMF,https://www.flightradar24.com/data/airports/trn,45.20076,7.649631
Italy,Venice Marco Polo Airport,VCE/LIPZ,https://www.flightradar24.com/data/airports/vce,45.505268,12.35194
Italy,Verona Airport,VRN/LIPX,https://www.flightradar24.com/data/airports/vrn,45.395699,10.88853
Iceland,Thorshofn Airport,THO/BITN,https://www.flightradar24.com/data/airports/tho,66.21833,-15.3347
Iceland,Vestmannaeyjar Airport,VEY/BIVM,https://www.flightradar24.com/data/airports/vey,63.424999,-20.2791
Iceland,Vopnafjordur Airport,VPN/BIVO,https://www.flightradar24.com/data/airports/vpn,65.720551,-14.8505
Falkland Islands (malvinas),Mount Pleasant Airport,MPN/EGYP,https://www.flightradar24.com/data/airports/mpn,-51.822701,-58.447201
Falkland Islands (malvinas),Stanley Airport,PSY/SFAL,https://www.flightradar24.com/data/airports/psy,-51.685699,-57.777599
Mauritius,Port Louis Sir Seewoosagur Ramgoolam Airport,MRU/FIMP,https://www.flightradar24.com/data/airports/mru,-20.430201,57.683601
Mauritius,Rodrigues Island Plaine Corail Airport,RRG/FIMR,https://www.flightradar24.com/data/airports/rrg,-19.757601,63.360981
Central African Republic,Bangui Airport,BGF/FEFF,https://www.flightradar24.com/data/airports/bgf,4.398475,18.51878
Greece,Alexandroupolis International Airport,AXD/LGAL,https://www.flightradar24.com/data/airports/axd,40.855862,25.956261
Greece,Astypalaia Island National Airport,JTY/LGPL,https://www.flightradar24.com/data/airports/jty,36.566666,26.366667
Greece,Athens Eleftherios Venizelos,ATH/LGAV,https://www.flightradar24.com/data/airports/ath,37.936352,23.94446
Greece,Chania International Airport,CHQ/LGSA,https://www.flightradar24.com/data/airports/chq,35.531738,24.14967
Greece,Chios Island National Airport,JKH/LGHI,https://www.flightradar24.com/data/airports/jkh,38.34317,26.14057
Greece,Corfu International Airport,CFU/LGKR,https://www.flightradar24.com/data/airports/cfu,39.60194,19.911659
Greece,Heraklion International Airport,HER/LGIR,https://www.flightradar24.com/data/airports/her,35.33971,25.18029
Greece,Ikaria Island National Airport,JIK/LGIK,https://www.flightradar24.com/data/airports/jik,37.666668,26.333332
Greece,Ioannina National Airport,IOA/LGIO,https://www.flightradar24.com/data/airports/ioa,39.696381,20.8225
Greece,Kalamata International Airport,KLX/LGKL,https://www.flightradar24.com/data/airports/klx,37.06831,22.02552
Greece,Kalymnos Island National Airport,JKL/LGKY,https://www.flightradar24.com/data/airports/jkl,36.963329,26.940556
Greece,Karpathos Island National Airport,AOK/LGKP,https://www.flightradar24.com/data/airports/aok,35.421398,27.146
Greece,Kasos Island Airport,KSJ/LGKS,https://www.flightradar24.com/data/airports/ksj,35.421349,26.91004
Greece,Kastellorizo Airport,KZS/LGKJ,https://www.flightradar24.com/data/airports/kzs,36.127769,29.56665
Greece,Kastoria National Airport,KSO/LGKA,https://www.flightradar24.com/data/airports/kso,40.446289,21.282181
Greece,Kavala International Airport,KVA/LGKV,https://www.flightradar24.com/data/airports/kva,40.9133,24.619221
Greece,Kefalonia Cephalonia International Airport,EFL/LGKF,https://www.flightradar24.com/data/airports/efl,38.12006,20.500481
Greece,Kithira Island National Airport,KIT/LGKC,https://www.flightradar24.com/data/airports/kit,36.27425,23.01697
Greece,Kos Island International Airport,KGS/LGKO,https://www.flightradar24.com/data/airports/kgs,36.793331,27.09166
Greece,Kozani National Airport,KZI/LGKZ,https://www.flightradar24.com/data/airports/kzi,40.28611,21.84083
Greece,Lemnos International Airport,LXS/LGLM,https://www.flightradar24.com/data/airports/lxs,39.917068,25.2363
Greece,Leros Municipal Airport,LRS/LGLE,https://www.flightradar24.com/data/airports/lrs,37.184898,26.80028
Greece,Milos Island National Airport,MLO/LGML,https://www.flightradar24.com/data/airports/mlo,36.69611,24.477501
Greece,Mykonos Island National Airport,JMK/LGMK,https://www.flightradar24.com/data/airports/jmk,37.43512,25.348101
Greece,Mytilene International Airport,MJT/LGMT,https://www.flightradar24.com/data/airports/mjt,39.05666,26.59833
Greece,Naxos Island National Airport,JNX/LGNX,https://www.flightradar24.com/data/airports/jnx,37.080551,25.36805
Greece,Paros National Airport,PAS/LGPA,https://www.flightradar24.com/data/airports/pas,37.019958,25.113379
Greece,Patras Araxos Airport,GPA/LGRX,https://www.flightradar24.com/data/airports/gpa,38.151112,21.42555
Greece,Aktion National Airport,PVK/LGPZ,https://www.flightradar24.com/data/airports/pvk,38.925461,20.76531
Greece,Rhodes International Airport,RHO/LGRP,https://www.flightradar24.com/data/airports/rho,36.405411,28.086189
Greece,Samos International Airport,SMI/LGSM,https://www.flightradar24.com/data/airports/smi,37.689991,26.911659
Libya,Alzintan Airport,ZIS/HLZN,https://www.flightradar24.com/data/airports/zis,31.775,12.25
Libya,Beida Al Abraq International Airport,LAQ/HLLQ,https://www.flightradar24.com/data/airports/laq,32.788612,21.964167
Libya,Benghazi Benina International Airport,BEN/HLLB,https://www.flightradar24.com/data/airports/ben,32.096779,20.26947
Libya,Ghat Airport,GHT/HLGT,https://www.flightradar24.com/data/airports/ght,25.145559,10.14264
Libya,Misrata International Airport,MRA/HLMS,https://www.flightradar24.com/data/airports/mra,32.325558,15.059722
Libya,Sabha Airport,SEB/HLLS,https://www.flightradar24.com/data/airports/seb,26.986959,14.47252
Libya,Tobruk Airport,TOB/HLGN,https://www.flightradar24.com/data/airports/tob,31.85,23.91
Libya,Tripoli Mitiga International Airport,MJI/HLLM,https://www.flightradar24.com/data/airports/mji,32.889999,13.27
Libya,Tripoli International Airport,TIP/HLLT,https://www.flightradar24.com/data/airports/tip,32.66354,13.15901
Libya,Zwara Airport,WAX/HLZW,https://www.flightradar24.com/data/airports/wax,32.933334,12.083333
Greece,Santorini Thira National Airport,JTR/LGSR,https://www.flightradar24.com/data/airports/jtr,36.399158,25.47933
Greece,Sitia Public Airport,JSH/LGST,https://www.flightradar24.com/data/airports/jsh,35.216099,26.10132
Greece,Skiathos Island National Airport,JSI/LGSK,https://www.flightradar24.com/data/airports/jsi,39.177101,23.50367
Greece,Skyros Island National Airport,SKU/LGSY,https://www.flightradar24.com/data/airports/sku,38.967548,24.487221
Greece,Syros Island National Airport,JSY/LGSO,https://www.flightradar24.com/data/airports/jsy,37.423611,24.950001
Greece,Thessaloniki International Airport,SKG/LGTS,https://www.flightradar24.com/data/airports/skg,40.519718,22.970949
Greece,Volos Nea Anchialos National Airport,VOL/LGBL,https://www.flightradar24.com/data/airports/vol,39.219608,22.794331
Greece,Zakynthos International Airport,ZTH/LGZA,https://www.flightradar24.com/data/airports/zth,37.750851,20.884251
Albania,Tirana International Airport,TIA/LATI,https://www.flightradar24.com/data/airports/tia,41.414742,19.72056
Burkina Faso,Ouagadougou Airport,OUA/DFFD,https://www.flightradar24.com/data/airports/oua,12.35319,-1.51241
Bangladesh,Barisal Airport,BZL/VGBR,https://www.flightradar24.com/data/airports/bzl,22.798943,90.301445
Bangladesh,Chittagong Shah Amanat International Airport,CGP/VGEG,https://www.flightradar24.com/data/airports/cgp,22.249611,91.813278
Suriname,Paramaribo Zorg en Hoop Airport,ORG/SMZO,https://www.flightradar24.com/data/airports/org,5.811083,-55.190701
Bangladesh,Cox's Bazar Airport,CXB/VGCB,https://www.flightradar24.com/data/airports/cxb,21.45219,91.963882
Bangladesh,Dhaka Shahjalal International Airport,DAC/VGHS,https://www.flightradar24.com/data/airports/dac,23.84333,90.397781
Bangladesh,Jessore Airport,JSR/VGJR,https://www.flightradar24.com/data/airports/jsr,23.1838,89.160828
Suriname,Paramaribo Zanderij International Airport,PBM/SMJP,https://www.flightradar24.com/data/airports/pbm,5.452831,-55.187698
Bangladesh,Rajshahi Shah Makhdum Airport,RJH/VGRJ,https://www.flightradar24.com/data/airports/rjh,24.43721,88.616508
Tanzania,Arusha Airport,ARK/HTAR,https://www.flightradar24.com/data/airports/ark,-3.36779,36.633331
Tanzania,Bukoba Airport,BKZ/HTBU,https://www.flightradar24.com/data/airports/bkz,-1.3,31.799999
Tanzania,Dar-es-Salaam Julius Nyerere International Airport,DAR/HTDA,https://www.flightradar24.com/data/airports/dar,-6.87811,39.202621
Tanzania,Dodoma Airport,DOD/HTDO,https://www.flightradar24.com/data/airports/dod,-6.17043,35.752571
Tanzania,Kigoma Airport,TKQ/HTKA,https://www.flightradar24.com/data/airports/tkq,-4.88638,29.67083
Tanzania,Kilimanjaro International Airport,JRO/HTKJ,https://www.flightradar24.com/data/airports/jro,-3.4294,37.074459
Tanzania,Lake Manyara Airport,LKY/HTLM,https://www.flightradar24.com/data/airports/lky,-3.375889,35.82021
Tanzania,Mbeya Airport,MBI/HTMB,https://www.flightradar24.com/data/airports/mbi,-8.916634,33.458858
Tanzania,Mtwara Airport,MYW/HTMT,https://www.flightradar24.com/data/airports/myw,-10.339,40.181782
Bangladesh,Saidpur Airport,SPD/VGSD,https://www.flightradar24.com/data/airports/spd,25.75922,88.908859
Bangladesh,Sylhet Osmani International Airport,ZYL/VGSY,https://www.flightradar24.com/data/airports/zyl,24.96324,91.866783
Tanzania,Mwanza Airport,MWZ/HTMW,https://www.flightradar24.com/data/airports/mwz,-2.44448,32.932659
Tanzania,Pemba Airport,PMA/HTPE,https://www.flightradar24.com/data/airports/pma,-5.25726,39.811409
Tanzania,Seronera Airstrip,SEU/HTSN,https://www.flightradar24.com/data/airports/seu,-2.4567,34.821545
Tanzania,Tabora Airport,TBO/HTTB,https://www.flightradar24.com/data/airports/tbo,-5.07638,32.833328
Tanzania,Tanga Airport,TGT/HTTG,https://www.flightradar24.com/data/airports/tgt,-5.09235,39.071152
Tanzania,Zanzibar Abeid Amani Karume International Airport,ZNZ/HTZA,https://www.flightradar24.com/data/airports/znz,-6.22202,39.22488
Argentina,Bahia Blanca Comandante Espora Airport,BHI/SAZB,https://www.flightradar24.com/data/airports/bhi,-38.724899,-62.1693
Argentina,Buenos Aires Ministro Pistarini International Airport,EZE/SAEZ,https://www.flightradar24.com/data/airports/eze,-34.822201,-58.535801
Argentina,Buenos Aires Jorge Newbery Airport,AEP/SABE,https://www.flightradar24.com/data/airports/aep,-34.559101,-58.4156
Argentina,Catamarca International Airport,CTC/SANC,https://www.flightradar24.com/data/airports/ctc,-28.593201,-65.7509
Argentina,Comodoro Rivadavia International Airport,CRD/SAVC,https://www.flightradar24.com/data/airports/crd,-45.785301,-67.4655
Argentina,Cordoba International Airport,COR/SACO,https://www.flightradar24.com/data/airports/cor,-31.323601,-64.207901
Argentina,Corrientes International Airport,CNQ/SARC,https://www.flightradar24.com/data/airports/cnq,-27.445499,-58.761799
Argentina,El Calafate International Airport,FTE/SAWC,https://www.flightradar24.com/data/airports/fte,-50.2803,-72.053101
Argentina,El Palomar Airport,EPA/SADP,https://www.flightradar24.com/data/airports/epa,-34.610001,-58.612499
Argentina,Esquel Airport,EQS/SAVE,https://www.flightradar24.com/data/airports/eqs,-42.907902,-71.139397
Argentina,Formosa International Airport,FMA/SARF,https://www.flightradar24.com/data/airports/fma,-26.2127,-58.2281
Argentina,Jujuy Gobernador Horacio Guzman International Airport,JUJ/SASJ,https://www.flightradar24.com/data/airports/juj,-24.3927,-65.097702
Argentina,La Rioja Airport,IRJ/SANL,https://www.flightradar24.com/data/airports/irj,-29.381599,-66.795799
Argentina,Malargue Airport,LGS/SAMM,https://www.flightradar24.com/data/airports/lgs,-35.4935,-69.574203
Argentina,Mar del Plata Astor Piazzolla International Airport,MDQ/SAZM,https://www.flightradar24.com/data/airports/mdq,-37.934101,-57.573299
Argentina,Mendoza International Airport,MDZ/SAME,https://www.flightradar24.com/data/airports/mdz,-32.831699,-68.792801
Argentina,Neuquen Presidente Peron International Airport,NQN/SAZN,https://www.flightradar24.com/data/airports/nqn,-38.949001,-68.155701
Argentina,Parana Airport,PRA/SAAP,https://www.flightradar24.com/data/airports/pra,-31.794701,-60.480301
Argentina,Posadas Airport,PSS/SARP,https://www.flightradar24.com/data/airports/pss,-27.385799,-55.970699
Argentina,Puerto Iguazu International Airport,IGR/SARI,https://www.flightradar24.com/data/airports/igr,-25.7372,-54.4734
Argentina,Puerto Madryn El Tehuelche Airport,PMY/SAVY,https://www.flightradar24.com/data/airports/pmy,-42.759102,-65.102699
Argentina,Reconquista Airport,RCQ/SATR,https://www.flightradar24.com/data/airports/rcq,-29.210278,-59.68
Argentina,Resistencia International Airport,RES/SARE,https://www.flightradar24.com/data/airports/res,-27.4499,-59.056099
Argentina,Rio Cuarto Las Higueras Airport,RCU/SAOC,https://www.flightradar24.com/data/airports/rcu,-33.085098,-64.261299
Argentina,Rio Gallegos International Airport,RGL/SAWG,https://www.flightradar24.com/data/airports/rgl,-51.608799,-69.312599
Argentina,Rio Grande International Airport,RGA/SAWE,https://www.flightradar24.com/data/airports/rga,-53.777599,-67.749298
Argentina,Rosario Islas Malvinas International Airport,ROS/SAAR,https://www.flightradar24.com/data/airports/ros,-32.903599,-60.785
Argentina,Salta Martin Miguel de Guemes International Airport,SLA/SASA,https://www.flightradar24.com/data/airports/sla,-24.8559,-65.486099
Argentina,San Carlos de Bariloche Airport,BRC/SAZS,https://www.flightradar24.com/data/airports/brc,-41.1511,-71.157501
Argentina,San Juan Domingo Faustino Sarmiento,UAQ/SANU,https://www.flightradar24.com/data/airports/uaq,-31.5714,-68.418098
Argentina,San Luis Airport,LUQ/SAOU,https://www.flightradar24.com/data/airports/luq,-33.273102,-66.3564
Argentina,San Martin de los Andes Airport,CPC/SAZY,https://www.flightradar24.com/data/airports/cpc,-40.075298,-71.137199
Argentina,San Rafael Airport,AFA/SAMR,https://www.flightradar24.com/data/airports/afa,-34.588299,-68.403801
Argentina,Santa Fe Sauce Viejo Airport,SFN/SAAV,https://www.flightradar24.com/data/airports/sfn,-31.711599,-60.8116
Argentina,Santa Rosa Airport,RSA/SAZR,https://www.flightradar24.com/data/airports/rsa,-36.588299,-64.275597
Argentina,Santiago del Estero Airport,SDE/SANE,https://www.flightradar24.com/data/airports/sde,-27.7656,-64.310097
Argentina,Termas de Rio Hondo Airport,RHD/SANH,https://www.flightradar24.com/data/airports/rhd,-27.450001,-64.879997
Argentina,Trelew Almirante Marco Andres Zar Airport,REL/SAVT,https://www.flightradar24.com/data/airports/rel,-43.210499,-65.270302
Argentina,Tucuman Airport,TUC/SANT,https://www.flightradar24.com/data/airports/tuc,-26.840799,-65.104897
Malawi,Blantyre Chileka International Airport,BLZ/FWCL,https://www.flightradar24.com/data/airports/blz,-15.679,34.97401
Malawi,Lilongwe International Airport,LLW/FWKI,https://www.flightradar24.com/data/airports/llw,-13.7893,33.780998
United Kingdom,Aberdeen International Airport,ABZ/EGPD,https://www.flightradar24.com/data/airports/abz,57.201939,-2.19777
United Kingdom,Alderney Airport,ACI/EGJA,https://www.flightradar24.com/data/airports/aci,49.706108,-2.21472
United Kingdom,Anglesey Airport,VLY/EGOV,https://www.flightradar24.com/data/airports/vly,53.240002,-4.53
United Kingdom,Barra Airport,BRR/EGPR,https://www.flightradar24.com/data/airports/brr,57.016998,-7.433
United Kingdom,Barrow-in-Furness Walney Island Airport,BWF/EGNL,https://www.flightradar24.com/data/airports/bwf,54.131161,-3.26366
United Kingdom,Belfast International Airport,BFS/EGAA,https://www.flightradar24.com/data/airports/bfs,54.657501,-6.21583
United Kingdom,Belfast City George Best  Airport,BHD/EGAC,https://www.flightradar24.com/data/airports/bhd,54.61805,-5.8725
United Kingdom,Benbecula Airport,BEB/EGPL,https://www.flightradar24.com/data/airports/beb,57.48111,-7.36277
United Kingdom,Birmingham Airport,BHX/EGBB,https://www.flightradar24.com/data/airports/bhx,52.45385,-1.74802
United Kingdom,Blackbushe Airport,BBS/EGLK,https://www.flightradar24.com/data/airports/bbs,51.323879,-0.8475
United Kingdom,Blackpool International Airport,BLK/EGNH,https://www.flightradar24.com/data/airports/blk,53.77166,-3.02861
United Kingdom,Bournemouth Airport,BOH/EGHH,https://www.flightradar24.com/data/airports/boh,50.779999,-1.8425
Senegal,Dakar Blaise Diagne International Airport,DSS/GOBD,https://www.flightradar24.com/data/airports/dss,14.671111,-17.066944
United Kingdom,Brighton City Shoreham Airport,ESH/EGKA,https://www.flightradar24.com/data/airports/esh,50.835548,-0.29722
Senegal,Dakar International Airport,DKR/GOOY,https://www.flightradar24.com/data/airports/dkr,14.7397,-17.4902
Senegal,Ziguinchor Airport,ZIG/GOGG,https://www.flightradar24.com/data/airports/zig,12.55561,-16.2817
United Kingdom,Bristol Airport,BRS/EGGD,https://www.flightradar24.com/data/airports/brs,51.38266,-2.71908
United Kingdom,RAF Brize Norton,BZZ/EGVN,https://www.flightradar24.com/data/airports/bzz,51.749962,-1.58361
Turkmenistan,Ashgabat International Airport,ASB/UTAA,https://www.flightradar24.com/data/airports/asb,37.986809,58.360958
Turkmenistan,Dasoguz Airport,TAZ/UTAT,https://www.flightradar24.com/data/airports/taz,41.761101,59.826698
Turkmenistan,Mary International Airport,MYP/UTAM,https://www.flightradar24.com/data/airports/myp,37.6194,61.896702
Turkmenistan,Turkmenabat Airport,CRZ/UTAV,https://www.flightradar24.com/data/airports/crz,39.083302,63.6133
Turkmenistan,Turkmenbashi International Airport,KRW/UTAK,https://www.flightradar24.com/data/airports/krw,40.063332,53.007221
United Kingdom,Cambridge Airport,CBG/EGSC,https://www.flightradar24.com/data/airports/cbg,52.205002,0.175
United Kingdom,Campbeltown Airport,CAL/EGEC,https://www.flightradar24.com/data/airports/cal,55.43,-5.68
North Korea,Pyongyang Sunan International Airport,FNJ/ZKPY,https://www.flightradar24.com/data/airports/fnj,39.22406,125.670097
Argentina,Ushuaia Malvinas Argentinas International Airport,USH/SAWH,https://www.flightradar24.com/data/airports/ush,-54.843201,-68.2957
Argentina,Viedma Gobernador Edgardo Castello Airport,VDM/SAVV,https://www.flightradar24.com/data/airports/vdm,-40.869202,-63.000301
Saint Kitts And Nevis,Basseterre Robert L. Bradshaw International Airport,SKB/TKPK,https://www.flightradar24.com/data/airports/skb,17.31119,-62.718601
Argentina,Villa Gesell Airport,VLG/SAZV,https://www.flightradar24.com/data/airports/vlg,-37.235401,-57.029202
United Kingdom,Cardiff Airport,CWL/EGFF,https://www.flightradar24.com/data/airports/cwl,51.396469,-3.33753
United Kingdom,Carlisle Lake District Airport,CAX/EGNC,https://www.flightradar24.com/data/airports/cax,54.9375,-2.80916
United Kingdom,Chester Hawarden Airport,CEG/EGNR,https://www.flightradar24.com/data/airports/ceg,53.178051,-2.97777
United Kingdom,Chichester Goodwood Airport,QUG/EGHR,https://www.flightradar24.com/data/airports/qug,50.859402,-0.759167
Panama,Balboa Panama Pacifico International Airport,BLB/MPPA,https://www.flightradar24.com/data/airports/blb,8.914011,-79.598091
United Kingdom,Coventry Airport,CVT/EGBE,https://www.flightradar24.com/data/airports/cvt,52.36972,-1.47972
United Kingdom,Darlington Durham Tees Valley Airport,MME/EGNV,https://www.flightradar24.com/data/airports/mme,54.509178,-1.4294
United Kingdom,Doncaster Sheffield Airport,DSA/EGCN,https://www.flightradar24.com/data/airports/dsa,53.47472,-1.00444
United Kingdom,Dundee Airport,DND/EGPN,https://www.flightradar24.com/data/airports/dnd,56.452492,-3.02583
United Kingdom,East Midlands Airport,EMA/EGNX,https://www.flightradar24.com/data/airports/ema,52.831108,-1.32805
United Kingdom,Eday Airport,EOI/EGED,https://www.flightradar24.com/data/airports/eoi,59.191422,-2.77168
United Kingdom,Edinburgh Airport,EDI/EGPH,https://www.flightradar24.com/data/airports/edi,55.950001,-3.3725
United Kingdom,Exeter Airport,EXT/EGTE,https://www.flightradar24.com/data/airports/ext,50.73444,-3.41388
United Kingdom,Fair Isle Airport,FIE/EGEF,https://www.flightradar24.com/data/airports/fie,59.530926,-1.608972
United Kingdom,Farnborough Airport,FAB/EGLF,https://www.flightradar24.com/data/airports/fab,51.275829,-0.77633
United Kingdom,Glasgow International Airport,GLA/EGPF,https://www.flightradar24.com/data/airports/gla,55.871941,-4.43305
United Kingdom,Gloucester Gloucestershire Airport,GLO/EGBJ,https://www.flightradar24.com/data/airports/glo,51.894161,-2.16722
United Kingdom,Guernsey Airport,GCI/EGJB,https://www.flightradar24.com/data/airports/gci,49.434952,-2.60196
United Kingdom,High Wycombe Booker Airfield,HYC/EGTB,https://www.flightradar24.com/data/airports/hyc,51.611698,-0.808333
Saint Kitts And Nevis,Nevis Newcastle International Airport,NEV/TKPN,https://www.flightradar24.com/data/airports/nev,17.205,-62.592499
United Kingdom,Humberside Airport,HUY/EGNJ,https://www.flightradar24.com/data/airports/huy,53.57444,-0.35083
United Kingdom,Inverness Airport,INV/EGPE,https://www.flightradar24.com/data/airports/inv,57.5425,-4.0475
United Kingdom,Islay Airport,ILY/EGPI,https://www.flightradar24.com/data/airports/ily,55.681938,-6.25666
United Kingdom,Isle of Man Airport,IOM/EGNS,https://www.flightradar24.com/data/airports/iom,54.083328,-4.62388
United Kingdom,Isles of Scilly St Mary's Airport,ISC/EGHE,https://www.flightradar24.com/data/airports/isc,49.91333,-6.29166
United Kingdom,Jersey Airport,JER/EGJJ,https://www.flightradar24.com/data/airports/jer,49.207939,-2.1955
United Kingdom,Kemble Cotswold Airport,GBA/EGBP,https://www.flightradar24.com/data/airports/gba,51.668056,-2.056944
United Kingdom,Kirkwall Airport,KOI/EGPA,https://www.flightradar24.com/data/airports/koi,58.957771,-2.905
United Kingdom,Lands End Airport,LEQ/EGHC,https://www.flightradar24.com/data/airports/leq,50.102791,-5.670205
United Kingdom,Lasham Airport,QLA/EGHL,https://www.flightradar24.com/data/airports/qla,51.187199,-1.0335
United Kingdom,Leeds Bradford Airport,LBA/EGNM,https://www.flightradar24.com/data/airports/lba,53.865891,-1.66056
United Kingdom,Lerwick Tingwall Airport,LWK/EGET,https://www.flightradar24.com/data/airports/lwk,60.190247,-1.244494
United Kingdom,Liverpool John Lennon Airport,LPL/EGGP,https://www.flightradar24.com/data/airports/lpl,53.333611,-2.84972
United Kingdom,London City Airport,LCY/EGLC,https://www.flightradar24.com/data/airports/lcy,51.505268,0.055278
United Kingdom,London Gatwick Airport,LGW/EGKK,https://www.flightradar24.com/data/airports/lgw,51.148048,-0.19027
United Kingdom,London Heathrow Airport,LHR/EGLL,https://www.flightradar24.com/data/airports/lhr,51.471626,-0.467081
United Kingdom,London Biggin Hill Airport,BQH/EGKB,https://www.flightradar24.com/data/airports/bqh,51.33083,0.0325
United Kingdom,London Luton Airport,LTN/EGGW,https://www.flightradar24.com/data/airports/ltn,51.874722,-0.36833
Panama,Bocas Del Toro International Airport,BOC/MPBO,https://www.flightradar24.com/data/airports/boc,9.340853,-82.250801
Panama,Changuinola International Airport,CHX/MPCH,https://www.flightradar24.com/data/airports/chx,9.458636,-82.5168
Panama,Chitre Alonso Valderrama Airport,CTD/MPCE,https://www.flightradar24.com/data/airports/ctd,7.98784,-80.409698
Panama,Colon Enrique Adolfo Jimenez Airport,ONX/MPEJ,https://www.flightradar24.com/data/airports/onx,9.356639,-79.867401
Panama,David Enrique Malek International Airport,DAV/MPDA,https://www.flightradar24.com/data/airports/dav,8.391003,-82.434898
Panama,Panama City Tocumen International Airport,PTY/MPTO,https://www.flightradar24.com/data/airports/pty,9.071364,-79.3834
Panama,Panama City International Airport,PAC/MPMG,https://www.flightradar24.com/data/airports/pac,8.973339,-79.555496
Panama,Rio Hato Scarlett Martinez International Airport,RIH/MPSM,https://www.flightradar24.com/data/airports/rih,8.371162,-80.127876
Nepal,Baglung Airport,BGL/VNBL,https://www.flightradar24.com/data/airports/bgl,28.212799,83.666298
Kuwait,Kuwait International Airport,KWI/OKBK,https://www.flightradar24.com/data/airports/kwi,29.226561,47.968922
United Kingdom,London Stansted Airport,STN/EGSS,https://www.flightradar24.com/data/airports/stn,51.884998,0.235
United Kingdom,City of Derry Airport,LDY/EGAE,https://www.flightradar24.com/data/airports/ldy,55.04277,-7.16111
United Kingdom,Lydd Ashford Airport,LYX/EGMD,https://www.flightradar24.com/data/airports/lyx,50.956108,0.939167
United Kingdom,Manchester Airport,MAN/EGCC,https://www.flightradar24.com/data/airports/man,53.353741,-2.27495
United Kingdom,Newcastle Airport,NCL/EGNT,https://www.flightradar24.com/data/airports/ncl,55.037498,-1.69166
United Kingdom,Newquay Cornwall Airport,NQY/EGHQ,https://www.flightradar24.com/data/airports/nqy,50.440552,-4.9954
United Kingdom,North Connel Oban Airport,OBN/EGEO,https://www.flightradar24.com/data/airports/obn,56.463501,-5.39967
United Kingdom,North Ronaldsay Airport,NRL/EGEN,https://www.flightradar24.com/data/airports/nrl,59.3675,-2.434444
United Kingdom,Northampton Sywell Airport,ORM/EGBK,https://www.flightradar24.com/data/airports/orm,52.305302,-0.793056
United Kingdom,Norwich International Airport,NWI/EGSH,https://www.flightradar24.com/data/airports/nwi,52.675831,1.282778
United Kingdom,Nottingham Airport,NQT/EGBN,https://www.flightradar24.com/data/airports/nqt,52.919998,-1.07917
United Kingdom,London Oxford Airport,OXF/EGTK,https://www.flightradar24.com/data/airports/oxf,51.836941,-1.32
United Kingdom,Papa Westray Airport,PPW/EGEP,https://www.flightradar24.com/data/airports/ppw,59.351265,-2.898974
United Kingdom,Perth Scone Airport,PSL/EGPT,https://www.flightradar24.com/data/airports/psl,56.439201,-3.37222
United Kingdom,Glasgow Prestwick Airport,PIK/EGPK,https://www.flightradar24.com/data/airports/pik,55.509441,-4.58666
United Kingdom,Rochester Airport,RCS/EGTO,https://www.flightradar24.com/data/airports/rcs,51.351898,0.503333
United Kingdom,Sanday Airport,NDY/EGES,https://www.flightradar24.com/data/airports/ndy,59.250278,-2.576667
United Kingdom,Scatsta Airport,SCS/EGPM,https://www.flightradar24.com/data/airports/scs,60.432777,-1.296111
United Kingdom,Southampton Airport,SOU/EGHI,https://www.flightradar24.com/data/airports/sou,50.95026,-1.3568
United Kingdom,London Southend Airport,SEN/EGMC,https://www.flightradar24.com/data/airports/sen,51.571381,0.695556
United Kingdom,St. Athan Airport,DGX/EGDX,https://www.flightradar24.com/data/airports/dgx,51.404106,-3.439235
United Kingdom,Stornoway Airport,SYY/EGPO,https://www.flightradar24.com/data/airports/syy,58.215549,-6.33111
United Kingdom,Stronsay Airport,SOY/EGER,https://www.flightradar24.com/data/airports/soy,59.154053,-2.640495
United Kingdom,Sumburgh Airport,LSI/EGPB,https://www.flightradar24.com/data/airports/lsi,59.87888,-1.29555
United Kingdom,Swansea Airport,SWS/EGFH,https://www.flightradar24.com/data/airports/sws,51.605331,-4.06783
United Kingdom,Tiree Airport,TRE/EGPU,https://www.flightradar24.com/data/airports/tre,56.499161,-6.86916
United Kingdom,Westray Airport,WRY/EGEW,https://www.flightradar24.com/data/airports/wry,59.349998,-2.95
United Kingdom,Wick Airport,WIC/EGPC,https://www.flightradar24.com/data/airports/wic,58.458881,-3.09305
Nepal,Bhadrapur Airport,BDP/VNCG,https://www.flightradar24.com/data/airports/bdp,26.570801,88.079597
Nepal,Bharatpur Airport,BHR/VNBP,https://www.flightradar24.com/data/airports/bhr,27.678049,84.429443
Nepal,Biratnagar Airport,BIR/VNVT,https://www.flightradar24.com/data/airports/bir,26.484159,87.264442
Nepal,Dhangadhi Airport,DHI/VNDH,https://www.flightradar24.com/data/airports/dhi,28.753332,80.581947
Nepal,Dolpa Airport,DOP/VNDP,https://www.flightradar24.com/data/airports/dop,28.985701,82.819099
Nepal,Janakpur Airport,JKR/VNJP,https://www.flightradar24.com/data/airports/jkr,26.708332,85.923889
Nepal,Jomsom Airport,JMO/VNJS,https://www.flightradar24.com/data/airports/jmo,28.780426,83.723
Nepal,Jumla Airport,JUM/VNJL,https://www.flightradar24.com/data/airports/jum,29.2742,82.193298
Nepal,Kathmandu Tribhuvan International Airport,KTM/VNKT,https://www.flightradar24.com/data/airports/ktm,27.696581,85.3591
Nepal,Lukla Tenzing Hillary Airport,LUA/VNLK,https://www.flightradar24.com/data/airports/lua,27.687771,86.731377
Nepal,Nepalgunj Airport,KEP/VNNG,https://www.flightradar24.com/data/airports/kep,28.103611,81.666946
Nepal,Phaplu Airport,PPL/VNPL,https://www.flightradar24.com/data/airports/ppl,27.517788,86.584457
Nepal,Pokhara Airport,PKR/VNPK,https://www.flightradar24.com/data/airports/pkr,28.200001,83.981659
Nepal,Siddharthanagar Bhairahawa Airport,BWA/VNBW,https://www.flightradar24.com/data/airports/bwa,27.507219,83.418053
Faroe Islands,Vagar Airport,FAE/EKVG,https://www.flightradar24.com/data/airports/fae,62.063622,-7.27721
Ecuador,Cuenca Mariscal Lamar International Airport,CUE/SECU,https://www.flightradar24.com/data/airports/cue,-2.88946,-78.984299
Nepal,Simara Airport,SIF/VNSI,https://www.flightradar24.com/data/airports/sif,27.159451,84.980118
Nepal,Simikot Airport,IMK/VNST,https://www.flightradar24.com/data/airports/imk,29.9711,81.818901
Nepal,Surkhet Airport,SKH/VNSK,https://www.flightradar24.com/data/airports/skh,28.586,81.636002
Nepal,Tumlingtar Airport,TMI/VNTR,https://www.flightradar24.com/data/airports/tmi,27.299999,87.199997
Solomon Islands,Honiara International Airport,HIR/AGGH,https://www.flightradar24.com/data/airports/hir,-9.428,160.054703
Solomon Islands,Kaghau Airport,KGE/AGKG,https://www.flightradar24.com/data/airports/kge,-7.333,157.582993
Bhutan,Gelephu Airport,GLU/VQGP,https://www.flightradar24.com/data/airports/glu,26.88348,90.465965
Bhutan,Jakar Bathpalathang Airport,BUT/VQBT,https://www.flightradar24.com/data/airports/but,27.562956,90.746101
Bhutan,Paro Airport,PBH/VQPR,https://www.flightradar24.com/data/airports/pbh,27.403191,89.424599
Bhutan,Trashigang Yongphulla Airport,YON/VQTY,https://www.flightradar24.com/data/airports/yon,27.25639,91.514442
Qatar,Doha Hamad International Airport,DOH/OTHH,https://www.flightradar24.com/data/airports/doh,25.273056,51.608055
Guyana,Georgetown Eugene F. Correira International Airport,OGL/SYEC,https://www.flightradar24.com/data/airports/ogl,6.807733,-58.105209
Ecuador,El Coca Francisco de Orellana Airport,OCC/SECO,https://www.flightradar24.com/data/airports/occ,-0.46288,-76.986801
Ecuador,Esmeraldas Carlos Concha Torres International Airport,ESM/SEES,https://www.flightradar24.com/data/airports/esm,0.978519,-79.626602
Ecuador,Seymour Baltra Galapagos Airport,GPS/SEGS,https://www.flightradar24.com/data/airports/gps,-0.45375,-90.2659
Ecuador,Guayaquil International Airport,GYE/SEGU,https://www.flightradar24.com/data/airports/gye,-2.15741,-79.883499
Ecuador,Latacunga Cotopaxi International Airport,LTX/SELT,https://www.flightradar24.com/data/airports/ltx,-0.9,-78.610001
Ecuador,Loja Ciudad de Catamayo Airport,LOH/SELO,https://www.flightradar24.com/data/airports/loh,-3.99589,-79.371902
Ecuador,Manta Eloy Alfaro International Airport,MEC/SEMT,https://www.flightradar24.com/data/airports/mec,-0.94607,-80.678802
Ecuador,Quito Mariscal Sucre International Airport,UIO/SEQM,https://www.flightradar24.com/data/airports/uio,-0.1133,-78.358597
Ecuador,San Cristobal Airport,SCY/SEST,https://www.flightradar24.com/data/airports/scy,-0.910278,-89.6175
Cyprus,Larnaca International Airport,LCA/LCLK,https://www.flightradar24.com/data/airports/lca,34.875111,33.624851
Jamaica,Kingston Norman Manley International Airport,KIN/MKJP,https://www.flightradar24.com/data/airports/kin,17.935659,-76.787498
Jamaica,Montego Bay Sangster International Airport,MBJ/MKJS,https://www.flightradar24.com/data/airports/mbj,18.50371,-77.9133
Montenegro,Podgorica Airport,TGD/LYPG,https://www.flightradar24.com/data/airports/tgd,42.35939,19.25189
Montenegro,Tivat Airport,TIV/LYTV,https://www.flightradar24.com/data/airports/tiv,42.404659,18.72328
India,Adampur Airport,AIP/VIAX,https://www.flightradar24.com/data/airports/aip,31.433056,75.760559
India,Agartala Airport,IXA/VEAT,https://www.flightradar24.com/data/airports/ixa,23.886971,91.240448
India,Agatti Airport,AGX/VOAT,https://www.flightradar24.com/data/airports/agx,10.82365,72.176041
India,Agra Airport,AGR/VIAG,https://www.flightradar24.com/data/airports/agr,27.15583,77.960892
India,Ahmedabad International Airport,AMD/VAAH,https://www.flightradar24.com/data/airports/amd,23.07724,72.634651
India,Aizawl Lengpui Airport,AJL/VELP,https://www.flightradar24.com/data/airports/ajl,23.838442,92.620361
India,Allahabad Airport,IXD/VIAL,https://www.flightradar24.com/data/airports/ixd,25.44006,81.733871
India,Amritsar International Airport,ATQ/VIAR,https://www.flightradar24.com/data/airports/atq,31.709591,74.797256
India,Andal Kazi Nazrul Islam Airport,RDP/VEDG,https://www.flightradar24.com/data/airports/rdp,23.621389,87.243332
India,Aurangabad Airport,IXU/VAAU,https://www.flightradar24.com/data/airports/ixu,19.86272,75.398109
India,Bathinda Airport,BUP/VIBT,https://www.flightradar24.com/data/airports/bup,30.2701,74.755798
India,Belgaum Airport,IXG/VABM,https://www.flightradar24.com/data/airports/ixg,15.85928,74.618294
India,Bengaluru Kempegowda International Airport,BLR/VOBL,https://www.flightradar24.com/data/airports/blr,13.198889,77.705559
India,Bhavnagar Airport,BHU/VABV,https://www.flightradar24.com/data/airports/bhu,21.752199,72.185181
India,Bhopal Raja Bhoj Airport,BHO/VABP,https://www.flightradar24.com/data/airports/bho,23.28746,77.337372
India,Bhubaneswar Biju Patnaik International Airport,BBI/VEBS,https://www.flightradar24.com/data/airports/bbi,20.24436,85.81778
India,Bhuj Airport,BHJ/VABJ,https://www.flightradar24.com/data/airports/bhj,23.287821,69.670143
India,Bikaner Nal Airport,BKB/VIBK,https://www.flightradar24.com/data/airports/bkb,28.070601,73.207199
India,Chandigarh Airport,IXC/VICG,https://www.flightradar24.com/data/airports/ixc,30.67346,76.788544
India,Chennai International Airport,MAA/VOMM,https://www.flightradar24.com/data/airports/maa,12.99441,80.180511
India,Cochin International Airport,COK/VOCI,https://www.flightradar24.com/data/airports/cok,10.15199,76.401901
India,Coimbatore International Airport,CJB/VOCB,https://www.flightradar24.com/data/airports/cjb,11.03003,77.043381
India,Cuddapah Kadapa Airport,CDP/VOCP,https://www.flightradar24.com/data/airports/cdp,14.51,78.772781
India,Dehradun Jolly Grant Airport,DED/VIDN,https://www.flightradar24.com/data/airports/ded,30.18968,78.180252
India,Delhi Indira Gandhi International Airport,DEL/VIDP,https://www.flightradar24.com/data/airports/del,28.5665,77.103081
Cyprus,Paphos International Airport,PFO/LCPH,https://www.flightradar24.com/data/airports/pfo,34.718029,32.485729
Guyana,Georgetown Cheddi Jagan International Airport,GEO/SYCJ,https://www.flightradar24.com/data/airports/geo,6.498553,-58.254101
India,Dharamsala Gaggal Kangra Airport,DHM/VIGG,https://www.flightradar24.com/data/airports/dhm,32.165001,76.263
India,Dibrugarh Airport,DIB/VEMN,https://www.flightradar24.com/data/airports/dib,27.48385,95.016922
India,Dimapur Airport,DMU/VEMR,https://www.flightradar24.com/data/airports/dmu,25.879816,93.772865
India,Diu Airport,DIU/VA1P,https://www.flightradar24.com/data/airports/diu,20.716667,70.916664
India,Gaya Airport,GAY/VEGY,https://www.flightradar24.com/data/airports/gay,24.744301,84.951172
India,Goa International Airport,GOI/VOGO,https://www.flightradar24.com/data/airports/goi,15.38083,73.831421
India,Gorakhpur Airport,GOP/VEGK,https://www.flightradar24.com/data/airports/gop,26.739445,83.449448
India,Guwahati International Airport,GAU/VEGT,https://www.flightradar24.com/data/airports/gau,26.106091,91.58593
India,Gwalior Airport,GWL/VIGR,https://www.flightradar24.com/data/airports/gwl,26.293329,78.227753
India,Hubli Airport,HBX/VOHB,https://www.flightradar24.com/data/airports/hbx,15.35,75.080002
India,Hyderabad Rajiv Gandhi International Airport,HYD/VOHS,https://www.flightradar24.com/data/airports/hyd,17.23,78.431946
India,Imphal Airport,IMF/VEIM,https://www.flightradar24.com/data/airports/imf,24.759951,93.89669
India,Indore Devi Ahilyabai Holkar Airport,IDR/VAID,https://www.flightradar24.com/data/airports/idr,22.721781,75.801079
India,Jabalpur Airport,JLR/VAJB,https://www.flightradar24.com/data/airports/jlr,23.177811,80.05204
India,Jaipur Airport,JAI/VIJP,https://www.flightradar24.com/data/airports/jai,26.82419,75.812157
India,Jalgaon Airport,JLG/VAJL,https://www.flightradar24.com/data/airports/jlg,20.961945,75.626663
India,Jammu Airport,IXJ/VIJU,https://www.flightradar24.com/data/airports/ixj,32.68914,74.837379
India,Jamnagar Airport,JGA/VAJM,https://www.flightradar24.com/data/airports/jga,22.465521,70.01255
India,Jodhpur Airport,JDH/VIJO,https://www.flightradar24.com/data/airports/jdh,26.251089,73.048859
India,Jorhat Airport,JRH/VEJT,https://www.flightradar24.com/data/airports/jrh,26.73152,94.175529
India,Kannur International Airport,CNN/VOKN,https://www.flightradar24.com/data/airports/cnn,11.918396,75.547485
India,Kanpur Airport,KNU/VIKA,https://www.flightradar24.com/data/airports/knu,26.441441,80.364861
India,Khajuraho Airport,HJR/VAKJ,https://www.flightradar24.com/data/airports/hjr,24.81719,79.918587
India,Kishangarh Airport,KQH/VIKG,https://www.flightradar24.com/data/airports/kqh,26.591726,74.814255
India,Kolhapur Airport,KLH/VAKP,https://www.flightradar24.com/data/airports/klh,16.66465,74.289352
India,Kolkata International Airport,CCU/VECC,https://www.flightradar24.com/data/airports/ccu,22.65473,88.446716
India,Kozhikode Calicut International Airport,CCJ/VOCL,https://www.flightradar24.com/data/airports/ccj,11.13785,75.950905
India,Kullu Bhuntar Airport,KUU/VIBR,https://www.flightradar24.com/data/airports/kuu,31.876699,77.154358
India,Leh Kushok Bakula Rimpochee Airport,IXL/VILH,https://www.flightradar24.com/data/airports/ixl,34.135872,77.546509
India,Lucknow Chaudhary Charan Singh Airport,LKO/VILK,https://www.flightradar24.com/data/airports/lko,26.76059,80.889328
India,Ludhiana Sahnewal Airport,LUH/VILD,https://www.flightradar24.com/data/airports/luh,30.854679,75.952591
India,Madurai Airport,IXM/VOMD,https://www.flightradar24.com/data/airports/ixm,9.834508,78.093369
India,Mangalore Airport,IXE/VOML,https://www.flightradar24.com/data/airports/ixe,12.96126,74.89006
India,Mumbai Chhatrapati Shivaji International Airport,BOM/VABB,https://www.flightradar24.com/data/airports/bom,19.08868,72.867912
India,Mysore Airport,MYQ/VOMY,https://www.flightradar24.com/data/airports/myq,12.229991,76.653
India,Nagpur Dr. Babasaheb Ambedkar International Airport,NAG/VANP,https://www.flightradar24.com/data/airports/nag,21.09219,79.04718
India,Nander Airport,NDC/VAND,https://www.flightradar24.com/data/airports/ndc,19.18194,77.318611
India,Nashik Ozar Airport,ISK/VAOZ,https://www.flightradar24.com/data/airports/isk,20.119444,73.913612
India,Pakyong Airport,PYG/VEPY,https://www.flightradar24.com/data/airports/pyg,27.227777,88.586945
India,Pantnagar Airport,PGH/VIPT,https://www.flightradar24.com/data/airports/pgh,29.0334,79.47374
India,Pasighat Airport,IXT/VEPG,https://www.flightradar24.com/data/airports/ixt,28.1,95.383003
India,Pathankot Airport,IXP/VIPK,https://www.flightradar24.com/data/airports/ixp,32.233768,75.634621
India,Patna Jay Prakash Narayan International Airport,PAT/VEPT,https://www.flightradar24.com/data/airports/pat,25.591311,85.08799
India,Porbandar Airport,PBD/VAPR,https://www.flightradar24.com/data/airports/pbd,21.64867,69.657211
India,Port Blair Veer Savarkar International Airport,IXZ/VOPB,https://www.flightradar24.com/data/airports/ixz,11.64116,92.729736
India,Pondicherry Airport,PNY/VOPC,https://www.flightradar24.com/data/airports/pny,11.9687,79.810097
India,Pune Airport,PNQ/VAPO,https://www.flightradar24.com/data/airports/pnq,18.582109,73.919693
India,Raipur Swami Vivekananda Airport,RPR/VARP,https://www.flightradar24.com/data/airports/rpr,21.180401,81.738747
India,Rajahmundry Airport,RJA/VORY,https://www.flightradar24.com/data/airports/rja,17.110359,81.818199
India,Rajkot Airport,RAJ/VARK,https://www.flightradar24.com/data/airports/raj,22.309179,70.779518
India,Ranchi Birsa Munda Airport,IXR/VERC,https://www.flightradar24.com/data/airports/ixr,23.314251,85.321671
India,Shillong Airport,SHL/VEBI,https://www.flightradar24.com/data/airports/shl,25.704872,91.975983
India,Shimla Airport,SLV/VISM,https://www.flightradar24.com/data/airports/slv,31.081667,77.068054
India,Shirdi Airport,SAG/VASD,https://www.flightradar24.com/data/airports/sag,19.68861,74.378891
India,Silchar Airport,IXS/VEKU,https://www.flightradar24.com/data/airports/ixs,24.91292,92.978737
India,Siliguri Bagdogra Airport,IXB/VEBD,https://www.flightradar24.com/data/airports/ixb,26.6812,88.32856
India,Srinagar Airport,SXR/VISR,https://www.flightradar24.com/data/airports/sxr,33.987129,74.774246
India,Surat Airport,STV/VASU,https://www.flightradar24.com/data/airports/stv,21.114059,72.741791
India,Trivandrum International Airport,TRV/VOTV,https://www.flightradar24.com/data/airports/trv,8.482122,76.920113
India,Tiruchirappalli International Airport,TRZ/VOTR,https://www.flightradar24.com/data/airports/trz,10.76536,78.709717
India,Tirupati Airport,TIR/VOTP,https://www.flightradar24.com/data/airports/tir,13.63249,79.543251
India,Tuticorin Airport,TCR/VOTK,https://www.flightradar24.com/data/airports/tcr,8.724167,78.025833
India,Udaipur Maharana Pratap Airport,UDR/VAUD,https://www.flightradar24.com/data/airports/udr,24.617689,73.896103
India,Vadodara Airport,BDQ/VABO,https://www.flightradar24.com/data/airports/bdq,22.336161,73.22628
India,Varanasi International Airport,VNS/VIBN,https://www.flightradar24.com/data/airports/vns,25.452351,82.859337
India,Vijayawada Airport,VGA/VOBZ,https://www.flightradar24.com/data/airports/vga,16.53043,80.796837
India,Visakhapatnam Airport,VTZ/VEVZ,https://www.flightradar24.com/data/airports/vtz,17.721161,83.22448
Congo,Brazzaville Maya Maya Airport,BZV/FCBB,https://www.flightradar24.com/data/airports/bzv,-4.2517,15.25303
Congo,Pointe Noire Airport,PNR/FCPP,https://www.flightradar24.com/data/airports/pnr,-4.81602,11.88659
Virgin Islands, British,Beef Island Terrance B. Lettsome Airport,EIS/TUPJ,https://www.flightradar24.com/data/airports/eis,18.44483,-64.5429
Virgin Islands, British,Virgin Gorda Airport,VIJ/TUPW,https://www.flightradar24.com/data/airports/vij,18.446381,-64.427498
Gabon,Libreville International Airport,LBV/FOOL,https://www.flightradar24.com/data/airports/lbv,0.4586,9.412283
Mayotte,Dzaoudzi Pamandzi International Airport,DZA/FMCZ,https://www.flightradar24.com/data/airports/dza,-12.8066,45.280548
Chad,N'Djamena International Airport,NDJ/FTTJ,https://www.flightradar24.com/data/airports/ndj,12.13368,15.03401
Lithuania,Kaunas Airport,KUN/EYKA,https://www.flightradar24.com/data/airports/kun,54.963909,24.08477
Lithuania,Palanga International Airport,PLQ/EYPA,https://www.flightradar24.com/data/airports/plq,55.973221,21.093849
Lithuania,Siauliai International Airport,SQQ/EYSA,https://www.flightradar24.com/data/airports/sqq,55.893879,23.39497
Lithuania,Vilnius International Airport,VNO/EYVI,https://www.flightradar24.com/data/airports/vno,54.63707,25.2878
Algeria,Adrar Airport,AZR/DAUA,https://www.flightradar24.com/data/airports/azr,27.83758,-0.18641
Algeria,Algiers Houari Boumediene Airport,ALG/DAAG,https://www.flightradar24.com/data/airports/alg,36.69101,3.215408
Algeria,Annaba Rabah Bitat Airport,AAE/DABB,https://www.flightradar24.com/data/airports/aae,36.82222,7.809167
Algeria,Batna International Airport,BLJ/DABT,https://www.flightradar24.com/data/airports/blj,35.759167,6.3225
Algeria,Bejaia Soummam Airport,BJA/DAAE,https://www.flightradar24.com/data/airports/bja,36.71199,5.069922
Algeria,Biskra Airport,BSK/DAUB,https://www.flightradar24.com/data/airports/bsk,34.793282,5.738231
Algeria,Chlef International Airport,CFK/DAOI,https://www.flightradar24.com/data/airports/cfk,36.212223,1.331667
Algeria,Constantine Mohamed Boudiaf International Airport,CZL/DABC,https://www.flightradar24.com/data/airports/czl,36.27602,6.620386
Algeria,Djanet Inedbirene Airport,DJG/DAAJ,https://www.flightradar24.com/data/airports/djg,24.292761,9.452444
Algeria,El Oued Guemar Airport,ELU/DAUO,https://www.flightradar24.com/data/airports/elu,33.511391,6.776794
Algeria,Ghardaia Noumerate Airport,GHA/DAUG,https://www.flightradar24.com/data/airports/gha,32.384102,3.794114
Algeria,Hassi Messaoud Oued Irara Airport,HME/DAUH,https://www.flightradar24.com/data/airports/hme,31.67297,6.140444
Algeria,Illizi Takhamalt Airport,VVZ/DAAP,https://www.flightradar24.com/data/airports/vvz,26.72353,8.622653
Algeria,Jijel Ferhat Abbas Airport,GJL/DAAV,https://www.flightradar24.com/data/airports/gjl,36.795132,5.873608
Algeria,Laghouat Airport,LOO/DAUL,https://www.flightradar24.com/data/airports/loo,33.764381,2.928344
Algeria,Oran Es Senia Airport,ORN/DAOO,https://www.flightradar24.com/data/airports/orn,35.623852,-0.62118
Algeria,Ouargla Ain Beida Airport,OGX/DAUU,https://www.flightradar24.com/data/airports/ogx,31.917219,5.412778
Algeria,Setif Ain Arnat Airport,QSF/DAAS,https://www.flightradar24.com/data/airports/qsf,36.17812,5.324494
Algeria,Tamanrasset Aguenar Airport,TMR/DAAT,https://www.flightradar24.com/data/airports/tmr,22.81146,5.451075
Algeria,Tindouf Airport,TIN/DAOF,https://www.flightradar24.com/data/airports/tin,27.700371,-8.1671
Algeria,Tlemcen Zenata Airport,TLM/DAON,https://www.flightradar24.com/data/airports/tlm,35.016659,-1.45
Greenland,Aasiaat Airport,JEG/BGAA,https://www.flightradar24.com/data/airports/jeg,68.72184,-52.784698
Greenland,Ilulissat Airport,JAV/BGJN,https://www.flightradar24.com/data/airports/jav,69.24321,-51.057098
Greenland,Kangerlussuaq Airport,SFJ/BGSF,https://www.flightradar24.com/data/airports/sfj,67.01696,-50.689301
Greenland,Kulusuk Airport,KUS/BGKK,https://www.flightradar24.com/data/airports/kus,65.573608,-37.1236
Greenland,Maniitsoq Airport,JSU/BGMQ,https://www.flightradar24.com/data/airports/jsu,65.41246,-52.9394
Greenland,Narsarsuaq Airport,UAK/BGBW,https://www.flightradar24.com/data/airports/uak,61.160709,-45.425598
Greenland,Nerlerit Inaat Airport,CNP/BGCO,https://www.flightradar24.com/data/airports/cnp,70.743332,-22.6605
Greenland,Nuuk Airport,GOH/BGGH,https://www.flightradar24.com/data/airports/goh,64.190918,-51.678001
Greenland,Paamiut Airport,JFR/BGPT,https://www.flightradar24.com/data/airports/jfr,61.992222,-49.662498
Greenland,Pituffik Airport,THU/BGTL,https://www.flightradar24.com/data/airports/thu,76.533333,-68.699997
Greenland,Qaanaaq Airport,NAQ/BGQQ,https://www.flightradar24.com/data/airports/naq,77.488647,-69.388702
Greenland,Qaarsut Airport,JQA/BGUQ,https://www.flightradar24.com/data/airports/jqa,70.73423,-52.696201
Greenland,Sisimiut Airport,JHS/BGSS,https://www.flightradar24.com/data/airports/jhs,66.951279,-53.729301
Greenland,Upernavik Airport,JUV/BGUK,https://www.flightradar24.com/data/airports/juv,72.790176,-56.130501
Saint Lucia,Castries George F. L. Charles Airport,SLU/TLPC,https://www.flightradar24.com/data/airports/slu,14.02022,-60.992901
Saint Lucia,Vieux Fort Hewanorra International Airport,UVF/TLPL,https://www.flightradar24.com/data/airports/uvf,13.73319,-60.952499
Somalia,Berbera Airport,BBO/HCMI,https://www.flightradar24.com/data/airports/bbo,10.38916,44.941101
Somalia,Bosaso Airport,BSA/HCMF,https://www.flightradar24.com/data/airports/bsa,11.283333,49.150002
Somalia,Galcaio Airport,GLK/HCMR,https://www.flightradar24.com/data/airports/glk,6.780833,47.45472
Somalia,Garowe Airport,GGR/HCMW,https://www.flightradar24.com/data/airports/ggr,8.460833,48.572224
Somalia,Hargeisa Airport,HGA/HCMH,https://www.flightradar24.com/data/airports/hga,9.518167,44.088749
Somalia,Kisimayu Airport,KMU/HCMK,https://www.flightradar24.com/data/airports/kmu,-0.37735,42.459229
Somalia,Mogadishu Aden Adde International Airport,MGQ/HCMM,https://www.flightradar24.com/data/airports/mgq,2.014444,45.304722
Northern Mariana Islands,Rota International Airport,ROP/PGRO,https://www.flightradar24.com/data/airports/rop,14.17435,145.241104
Northern Mariana Islands,Saipan International Airport,SPN/PGSN,https://www.flightradar24.com/data/airports/spn,15.119,145.729294
Reunion,Saint-Denis Roland Garros Airport,RUN/FMEE,https://www.flightradar24.com/data/airports/run,-20.889999,55.51638
Reunion,Saint-Pierre Pierrefonds Airport,ZSE/FMEP,https://www.flightradar24.com/data/airports/zse,-21.3216,55.425549
Turks And Caicos Islands,Grand Turk International Airport,GDT/MBJT,https://www.flightradar24.com/data/airports/gdt,21.44453,-71.142303
Turks And Caicos Islands,Providenciales International Airport,PLS/MBPV,https://www.flightradar24.com/data/airports/pls,21.773621,-72.2658
Turks And Caicos Islands,South Caicos Airport,XSC/MBSC,https://www.flightradar24.com/data/airports/xsc,21.51573,-71.528503
Japan,Akita Airport,AXT/RJSK,https://www.flightradar24.com/data/airports/axt,39.615551,140.218597
Japan,Amakusa Airport,AXJ/RJDA,https://www.flightradar24.com/data/airports/axj,32.483261,130.15564
Japan,Amami Airport,ASJ/RJKA,https://www.flightradar24.com/data/airports/asj,28.43063,129.712494
Japan,Aomori Airport,AOJ/RJSA,https://www.flightradar24.com/data/airports/aoj,40.734718,140.690796
Japan,Asahikawa Airport,AKJ/RJEC,https://www.flightradar24.com/data/airports/akj,43.67083,142.447495
Japan,Fukue Airport,FUJ/RJFE,https://www.flightradar24.com/data/airports/fuj,32.66626,128.832794
Japan,Fukuoka Airport,FUK/RJFF,https://www.flightradar24.com/data/airports/fuk,33.585941,130.450607
Japan,Hachijojima Airport,HAC/RJTH,https://www.flightradar24.com/data/airports/hac,33.115002,139.785797
Kyrgyzstan,Bishkek Manas International Airport,FRU/UCFM,https://www.flightradar24.com/data/airports/fru,43.061298,74.477547
Kyrgyzstan,Osh Airport,OSS/UCFO,https://www.flightradar24.com/data/airports/oss,40.608978,72.793259
Kyrgyzstan,Tamchy Issyk-Kul International Airport,IKU/UCFL,https://www.flightradar24.com/data/airports/iku,42.588055,76.713058
Japan,Hakodate Airport,HKD/RJCH,https://www.flightradar24.com/data/airports/hkd,41.77,140.821899
Japan,Hanamaki Airport,HNA/RJSI,https://www.flightradar24.com/data/airports/hna,39.428612,141.135193
Japan,Hiroshima Airport,HIJ/RJOA,https://www.flightradar24.com/data/airports/hij,34.436111,132.919403
Japan,Ishigaki New Airport,ISG/ROIG,https://www.flightradar24.com/data/airports/isg,24.396389,124.245003
Japan,Iwakuni Kintaikyo Airport,IWK/RJOI,https://www.flightradar24.com/data/airports/iwk,34.135277,132.23555
Japan,Izumo Airport,IZO/RJOC,https://www.flightradar24.com/data/airports/izo,35.413609,132.889893
Japan,Kagoshima Airport,KOJ/RJFK,https://www.flightradar24.com/data/airports/koj,31.803391,130.719406
Japan,Kikai Airport,KKX/RJKI,https://www.flightradar24.com/data/airports/kkx,28.321301,129.927994
Japan,Kitaakita Odate Noshiro Airport,ONJ/RJSR,https://www.flightradar24.com/data/airports/onj,40.196415,140.373825
Japan,Kitadaito Airport,KTD/RORK,https://www.flightradar24.com/data/airports/ktd,25.944719,131.326904
Japan,Kitakyushu Airport,KKJ/RJFR,https://www.flightradar24.com/data/airports/kkj,33.84594,131.034607
Japan,Kobe Airport,UKB/RJBE,https://www.flightradar24.com/data/airports/ukb,34.632771,135.223801
Japan,Komatsu Airport,KMQ/RJNK,https://www.flightradar24.com/data/airports/kmq,36.394611,136.406494
Japan,Kumamoto Airport,KMJ/RJFT,https://www.flightradar24.com/data/airports/kmj,32.837311,130.854996
Japan,Kumejima Airport,UEO/ROKJ,https://www.flightradar24.com/data/airports/ueo,26.363501,126.713799
Japan,Kushiro Airport,KUH/RJCK,https://www.flightradar24.com/data/airports/kuh,43.040958,144.192902
Japan,Masuda Hagi Iwami Airport,IWJ/RJOW,https://www.flightradar24.com/data/airports/iwj,34.676388,131.790283
Japan,Matsumoto Airport,MMJ/RJAF,https://www.flightradar24.com/data/airports/mmj,36.166752,137.922607
Japan,Matsuyama Airport,MYJ/RJOM,https://www.flightradar24.com/data/airports/myj,33.827221,132.699707
Japan,Memanbetsu Airport,MMB/RJCM,https://www.flightradar24.com/data/airports/mmb,43.8806,144.164001
Japan,Misawa Airport,MSJ/RJSM,https://www.flightradar24.com/data/airports/msj,40.70322,141.368301
Japan,Miyako Airport,MMY/ROMY,https://www.flightradar24.com/data/airports/mmy,24.782829,125.295097
Japan,Miyazaki Airport,KMI/RJFM,https://www.flightradar24.com/data/airports/kmi,31.87722,131.448593
Japan,Monbetsu Airport,MBE/RJEB,https://www.flightradar24.com/data/airports/mbe,44.303909,143.404007
Japan,Nagasaki Airport,NGS/RJFU,https://www.flightradar24.com/data/airports/ngs,32.916939,129.913605
Japan,Nagoya Chubu Centrair International Airport,NGO/RJGG,https://www.flightradar24.com/data/airports/ngo,34.85841,136.805405
Japan,Nagoya Komaki Airport,NKM/RJNA,https://www.flightradar24.com/data/airports/nkm,35.25,136.919998
Japan,Naha Airport,OKA/ROAH,https://www.flightradar24.com/data/airports/oka,26.19581,127.645798
Japan,Nakashibetsu Airport,SHB/RJCN,https://www.flightradar24.com/data/airports/shb,43.577499,144.960007
Japan,Nanki Shirahama Airport,SHM/RJBD,https://www.flightradar24.com/data/airports/shm,33.66222,135.364395
Japan,Kochi Airport,KCZ/RJOK,https://www.flightradar24.com/data/airports/kcz,33.546108,133.669403
Japan,Niigata Airport,KIJ/RJAN,https://www.flightradar24.com/data/airports/kij,37.955891,139.120697
Japan,Obihiro Tokachi Airport,OBO/RJCB,https://www.flightradar24.com/data/airports/obo,42.73333,143.217194
Japan,Oita Airport,OIT/RJFO,https://www.flightradar24.com/data/airports/oit,33.479439,131.737198
Japan,Okayama Airport,OKJ/RJOB,https://www.flightradar24.com/data/airports/okj,34.756939,133.855194
Japan,Oki Airport,OKI/RJNO,https://www.flightradar24.com/data/airports/oki,36.181122,133.324799
Japan,Okierabu Airport,OKE/RJKB,https://www.flightradar24.com/data/airports/oke,27.425501,128.701004
Japan,Omitama Ibaraki Airport,IBR/RJAH,https://www.flightradar24.com/data/airports/ibr,36.181667,140.414719
Japan,Osaka International Airport,ITM/RJOO,https://www.flightradar24.com/data/airports/itm,34.785519,135.438202
Japan,Osaka Kansai International Airport,KIX/RJBB,https://www.flightradar24.com/data/airports/kix,34.427299,135.244003
Japan,Oshima Airport,OIM/RJTO,https://www.flightradar24.com/data/airports/oim,34.782028,139.360306
Japan,Rishiri Airport,RIS/RJER,https://www.flightradar24.com/data/airports/ris,45.242001,141.186401
Japan,Saga Airport,HSG/RJFS,https://www.flightradar24.com/data/airports/hsg,33.153828,130.30278
Japan,Sakata Shonai Airport,SYO/RJSY,https://www.flightradar24.com/data/airports/syo,38.809444,139.790558
Japan,Sapporo Okadama Airport,OKD/RJCO,https://www.flightradar24.com/data/airports/okd,43.1143,141.383102
Japan,Sapporo New Chitose Airport,CTS/RJCC,https://www.flightradar24.com/data/airports/cts,42.7752,141.6922
Japan,Sendai Airport,SDJ/RJSS,https://www.flightradar24.com/data/airports/sdj,38.139721,140.916901
Japan,Shizuoka Airport,FSZ/RJNS,https://www.flightradar24.com/data/airports/fsz,34.796108,138.189407
Japan,Fukushima Airport,FKS/RJSF,https://www.flightradar24.com/data/airports/fks,37.227428,140.430603
Japan,Tajima Airport,TJH/RJBT,https://www.flightradar24.com/data/airports/tjh,35.512798,134.787003
Japan,Takamatsu Airport,TAK/RJOT,https://www.flightradar24.com/data/airports/tak,34.214161,134.015503
Japan,Tanegashima Airport,TNE/RJFG,https://www.flightradar24.com/data/airports/tne,30.605061,130.991196
Japan,Tarama Airport,TRA/RORT,https://www.flightradar24.com/data/airports/tra,24.6539,124.675003
Japan,Tokunoshima Airport,TKN/RJKN,https://www.flightradar24.com/data/airports/tkn,27.83638,128.881195
Japan,Tokushima Airport,TKS/RJOS,https://www.flightradar24.com/data/airports/tks,34.132801,134.606598
Japan,Tokyo Haneda International Airport,HND/RJTT,https://www.flightradar24.com/data/airports/hnd,35.55225,139.779602
Japan,Tokyo Narita International Airport,NRT/RJAA,https://www.flightradar24.com/data/airports/nrt,35.764721,140.386307
Japan,Tottori Airport,TTJ/RJOR,https://www.flightradar24.com/data/airports/ttj,35.53006,134.166504
Japan,Toyama Airport,TOY/RJNT,https://www.flightradar24.com/data/airports/toy,36.648331,137.1875
Japan,Tsushima Airport,TSJ/RJDT,https://www.flightradar24.com/data/airports/tsj,34.284882,129.330505
Japan,Ube Yamaguchi Airport,UBJ/RJDC,https://www.flightradar24.com/data/airports/ubj,33.93,131.278595
Japan,Wajima Noto Airport,NTQ/RJNW,https://www.flightradar24.com/data/airports/ntq,37.293098,136.961853
Japan,Wakkanai Airport,WKJ/RJCW,https://www.flightradar24.com/data/airports/wkj,45.40416,141.800797
Japan,Yakushima Airport,KUM/RJFC,https://www.flightradar24.com/data/airports/kum,30.385559,130.658997
Japan,Yamagata Airport,GAJ/RJSC,https://www.flightradar24.com/data/airports/gaj,38.411888,140.371307
Japan,Yonago Miho Airport,YGJ/RJOH,https://www.flightradar24.com/data/airports/ygj,35.492222,133.236298
Japan,Yonaguni Airport,OGN/ROYN,https://www.flightradar24.com/data/airports/ogn,24.46694,122.977699
Japan,Yoronjima Yoron Airport,RNJ/RORY,https://www.flightradar24.com/data/airports/rnj,27.043961,128.401505
Montserrat,Montserrat John A. Osborne Airport,MNI/TRPM,https://www.flightradar24.com/data/airports/mni,16.791109,-62.193001
Gambia,Banjul International Airport,BJL/GBYD,https://www.flightradar24.com/data/airports/bjl,13.33796,-16.652201
Swaziland,Manzini Matsapha Airport,MTS/FDMS,https://www.flightradar24.com/data/airports/mts,-26.528999,31.30751
Swaziland,Manzini King Mswati III International Airport,SHO/FDSK,https://www.flightradar24.com/data/airports/sho,-26.356667,31.716944
Barbados,Bridgetown Grantley Adams International Airport,BGI/TBPB,https://www.flightradar24.com/data/airports/bgi,13.0746,-59.492401
Burundi,Bujumbura International Airport,BJM/HBBA,https://www.flightradar24.com/data/airports/bjm,-3.32401,29.31851
Armenia,Gyumri Shirak Airport,LWN/UDSG,https://www.flightradar24.com/data/airports/lwn,40.75,43.849998
Armenia,Yerevan Zvartnots International Airport,EVN/UDYZ,https://www.flightradar24.com/data/airports/evn,40.14727,44.395882
Malaysia,Alor Setar Sultan Abdul Halim Airport,AOR/WMKA,https://www.flightradar24.com/data/airports/aor,6.189667,100.398102
Malaysia,Bakelalan Airport,BKM/WBGO,https://www.flightradar24.com/data/airports/bkm,3.988611,115.618797
Malaysia,Bario Airport,BBN/WBGZ,https://www.flightradar24.com/data/airports/bbn,3.736944,115.469398
Malaysia,Bintulu Airport,BTU/WBGB,https://www.flightradar24.com/data/airports/btu,3.12385,113.020401
Malaysia,Ipoh Sultan Azlan Shah Airport,IPH/WMKI,https://www.flightradar24.com/data/airports/iph,4.567972,101.092102
Malaysia,Johor Bahru Senai International Airport,JHB/WMKJ,https://www.flightradar24.com/data/airports/jhb,1.641308,103.669601
Malaysia,Kerteh Airport,KTE/WMKE,https://www.flightradar24.com/data/airports/kte,4.537222,103.426697
Malaysia,Kota Bharu Sultan Ismail Petra Airport,KBR/WMKC,https://www.flightradar24.com/data/airports/kbr,6.16685,102.292999
Malaysia,Kota Kinabalu International Airport,BKI/WBKK,https://www.flightradar24.com/data/airports/bki,5.937208,116.051102
Malaysia,Kuala Lumpur International Airport,KUL/WMKK,https://www.flightradar24.com/data/airports/kul,2.745578,101.7099
Malaysia,Kuala Lumpur Subang Airport,SZB/WMSA,https://www.flightradar24.com/data/airports/szb,3.130583,101.549301
Malaysia,Kuala Terengganu Sultan Mahmud Airport,TGG/WMKN,https://www.flightradar24.com/data/airports/tgg,5.382639,103.103302
Malaysia,Kuantan Sultan Haji Ahmad Shah Airport,KUA/WMKD,https://www.flightradar24.com/data/airports/kua,3.775389,103.209
Cook Islands,Aitutaki Airport,AIT/NCAI,https://www.flightradar24.com/data/airports/ait,-18.8309,-159.764008
Cook Islands,Avarua Rarotonga International Airport,RAR/NCRG,https://www.flightradar24.com/data/airports/rar,-21.2027,-159.804993
Malaysia,Kuching International Airport,KCH/WBGG,https://www.flightradar24.com/data/airports/kch,1.484697,110.346901
Malaysia,Kudat Airport,KUD/WBKT,https://www.flightradar24.com/data/airports/kud,6.924167,116.830803
Malaysia,Labuan Airport,LBU/WBKL,https://www.flightradar24.com/data/airports/lbu,5.300683,115.250099
Malaysia,Lahad Datu Airport,LDU/WBKD,https://www.flightradar24.com/data/airports/ldu,5.032247,118.323997
Malaysia,Langkawi International Airport,LGK/WMKL,https://www.flightradar24.com/data/airports/lgk,6.329728,99.728661
Malaysia,Lawas Airport,LWY/WBGW,https://www.flightradar24.com/data/airports/lwy,4.849167,115.402702
Malaysia,Limbang Airport,LMN/WBGJ,https://www.flightradar24.com/data/airports/lmn,4.808303,115.010399
Malaysia,Long Akah Airport,LKH/WBGL,https://www.flightradar24.com/data/airports/lkh,3.3,114.782997
Malaysia,Long Lellang Airport,LGL/WBGF,https://www.flightradar24.com/data/airports/lgl,3.421,115.153999
Malaysia,Malacca International Airport,MKZ/WMKM,https://www.flightradar24.com/data/airports/mkz,2.263361,102.251503
Netherlands,Amsterdam Schiphol Airport,AMS/EHAM,https://www.flightradar24.com/data/airports/ams,52.308609,4.763889
Netherlands,Bergen op Zoom Woensdrecht Air Base Airport,WOE/EHWO,https://www.flightradar24.com/data/airports/woe,51.4491,4.34203
Netherlands,Bonaire Flamingo International Airport,BON/TNCB,https://www.flightradar24.com/data/airports/bon,12.13104,-68.268501
Netherlands,Den Helder Airport,DHR/EHKD,https://www.flightradar24.com/data/airports/dhr,52.923351,4.780625
Netherlands,Eindhoven Airport,EIN/EHEH,https://www.flightradar24.com/data/airports/ein,51.45013,5.374528
Malaysia,Marudi Airport,MUR/WBGM,https://www.flightradar24.com/data/airports/mur,4.1775,114.321899
Malaysia,Miri Airport,MYY/WBGR,https://www.flightradar24.com/data/airports/myy,4.322014,113.986801
Malaysia,Mukah Airport,MKM/WBGK,https://www.flightradar24.com/data/airports/mkm,2.906944,112.074997
Malaysia,Mulu Airport,MZV/WBMU,https://www.flightradar24.com/data/airports/mzv,4.05,114.800003
Malaysia,Penang International Airport,PEN/WMKP,https://www.flightradar24.com/data/airports/pen,5.297139,100.276802
Malaysia,Sandakan Airport,SDK/WBKS,https://www.flightradar24.com/data/airports/sdk,5.900897,118.059402
Malaysia,Sibu Airport,SBW/WBGS,https://www.flightradar24.com/data/airports/sbw,2.261603,111.985298
Malaysia,Tanjung Manis Airport,TGC/WBTM,https://www.flightradar24.com/data/airports/tgc,2.177778,111.201942
Malaysia,Tawau Airport,TWU/WBKW,https://www.flightradar24.com/data/airports/twu,4.313369,118.121902
Fiji,Castaway Island Airport,CST/NFCS,https://www.flightradar24.com/data/airports/cst,-17.733299,177.126907
Fiji,Kandavu Airport,KDV/NFKD,https://www.flightradar24.com/data/airports/kdv,-19.053968,178.156067
Fiji,Labasa Airport,LBS/NFNL,https://www.flightradar24.com/data/airports/lbs,-16.4667,179.339798
Fiji,Malolo Lailai Airport,PTF/NFFO,https://www.flightradar24.com/data/airports/ptf,-17.777901,177.196701
Netherlands,Enschede Twenthe Airport,ENS/EHTW,https://www.flightradar24.com/data/airports/ens,52.27,6.874167
Netherlands,Groningen Airport Eelde,GRQ/EHGG,https://www.flightradar24.com/data/airports/grq,53.11972,6.579444
Netherlands,Lelystad Airport,LEY/EHLE,https://www.flightradar24.com/data/airports/ley,52.4603,5.52722
Netherlands,Maastricht Aachen Airport,MST/EHBK,https://www.flightradar24.com/data/airports/mst,50.911652,5.770144
Netherlands,Rotterdam The Hague Airport,RTM/EHRD,https://www.flightradar24.com/data/airports/rtm,51.95694,4.437222
Netherlands,Saba Juancho E. Yrausquin Airport,SAB/TNCS,https://www.flightradar24.com/data/airports/sab,17.645,-63.220001
Netherlands,Sint Maarten Princess Juliana International Airport,SXM/TNCM,https://www.flightradar24.com/data/airports/sxm,18.040951,-63.108898
Bolivia,Cobija Capitan Anibal Arab Airport,CIJ/SLCO,https://www.flightradar24.com/data/airports/cij,-11.0404,-68.782898
Bolivia,Cochabamba Jorge Wilstermann International Airport,CBB/SLCB,https://www.flightradar24.com/data/airports/cbb,-17.421,-66.177101
Bolivia,Guayaramerin Airport,GYA/SLGY,https://www.flightradar24.com/data/airports/gya,-10.8216,-65.345802
Bolivia,La Paz El Alto International Airport,LPB/SLLP,https://www.flightradar24.com/data/airports/lpb,-16.5133,-68.1922
Bolivia,Riberalta Airport,RIB/SLRI,https://www.flightradar24.com/data/airports/rib,-11.0105,-66.116669
Fiji,Mana Island Airport,MNF/NFMA,https://www.flightradar24.com/data/airports/mnf,-17.6731,177.098007
Fiji,Matei Taveuni Airport,TVU/NFNM,https://www.flightradar24.com/data/airports/tvu,-16.6905,-179.876007
Fiji,Nadi International Airport,NAN/NFFN,https://www.flightradar24.com/data/airports/nan,-17.755301,177.443298
Haiti,Cap-Haitien International Airport,CAP/MTCH,https://www.flightradar24.com/data/airports/cap,19.732981,-72.194702
